[
  {
    "turf": "Turf2",
    "precinct": "Man6a",
    "SOS_VOTERID": "OH0023666784",
    "name": "Henry Konczak",
    "age": "65",
    "shortAddress": "1 Marion Ave Apt 309",
    "mappableAddress": "1 MARION AVE Mansfield OH",
    "latitude": "40.7584692",
    "longitude": "-82.5237033",
    "order": "2",
    "full_order": "2"
  },
  {
    "turf": "Turf2",
    "precinct": "Man6a",
    "SOS_VOTERID": "OH0014737509",
    "name": "Deborah Mack",
    "age": "54",
    "shortAddress": "1 Marion Ave Ste 204",
    "mappableAddress": "1 MARION AVE Mansfield OH",
    "latitude": "40.7584692",
    "longitude": "-82.5237033",
    "order": "2",
    "full_order": "2.002"
  },
  {
    "turf": "Turf2",
    "precinct": "Man6a",
    "SOS_VOTERID": "OH0012731467",
    "name": "James Enyart",
    "age": "63",
    "shortAddress": "173 Park Ave W",
    "mappableAddress": "173 PARK AVE W Mansfield OH",
    "latitude": "40.7585085",
    "longitude": "-82.5220083",
    "order": "3",
    "full_order": "3"
  },
  {
    "turf": "Turf2",
    "precinct": "Man6a",
    "SOS_VOTERID": "OH0012670145",
    "name": "Tony Oneil",
    "age": "51",
    "shortAddress": "137 Park Ave W",
    "mappableAddress": "137 PARK AVE W Mansfield OH",
    "latitude": "40.7583474",
    "longitude": "-82.52074",
    "order": "4",
    "full_order": "4"
  },
  {
    "turf": "Turf2",
    "precinct": "Man6a",
    "SOS_VOTERID": "OH0019107248",
    "name": "Russell Brown",
    "age": "31",
    "shortAddress": "137 Park Ave W Apt 112",
    "mappableAddress": "137 PARK AVE W Mansfield OH",
    "latitude": "40.7583474",
    "longitude": "-82.52074",
    "order": "4",
    "full_order": "4.002"
  },
  {
    "turf": "Turf2",
    "precinct": "Man6a",
    "SOS_VOTERID": "OH0012701333",
    "name": "James Backensto",
    "age": "59",
    "shortAddress": "137 Park Ave W Apt 114",
    "mappableAddress": "137 PARK AVE W Mansfield OH",
    "latitude": "40.7583474",
    "longitude": "-82.52074",
    "order": "4",
    "full_order": "4.004"
  },
  {
    "turf": "Turf2",
    "precinct": "Man6a",
    "SOS_VOTERID": "OH0024064084",
    "name": "Antonio Garcia",
    "age": "51",
    "shortAddress": "137 Park Ave W Apt 224",
    "mappableAddress": "137 PARK AVE W Mansfield OH",
    "latitude": "40.7583474",
    "longitude": "-82.52074",
    "order": "4",
    "full_order": "4.006"
  },
  {
    "turf": "Turf2",
    "precinct": "Man6a",
    "SOS_VOTERID": "OH0012668718",
    "name": "Michael Whitcomb",
    "age": "42",
    "shortAddress": "137 Park Ave W Rm 211",
    "mappableAddress": "137 PARK AVE W Mansfield OH",
    "latitude": "40.7583474",
    "longitude": "-82.52074",
    "order": "4",
    "full_order": "4.008"
  },
  {
    "turf": "Turf2",
    "precinct": "Man6a",
    "SOS_VOTERID": "OH0023416598",
    "name": "John Peppard",
    "age": "50",
    "shortAddress": "101 W Luther Pl",
    "mappableAddress": "101 W LUTHER PL Mansfield OH",
    "latitude": "40.7579712",
    "longitude": "-82.5194927",
    "order": "5",
    "full_order": "5"
  },
  {
    "turf": "Turf2",
    "precinct": "Man6a",
    "SOS_VOTERID": "OH0024198820",
    "name": "Rachel Reed",
    "age": "23",
    "shortAddress": "101 W Luther Pl",
    "mappableAddress": "101 W LUTHER PL Mansfield OH",
    "latitude": "40.7579712",
    "longitude": "-82.5194927",
    "order": "5",
    "full_order": "5.001"
  },
  {
    "turf": "Turf2",
    "precinct": "Man6a",
    "SOS_VOTERID": "OH0024198827",
    "name": "Jonathan Cavendish",
    "age": "27",
    "shortAddress": "101 W Luther Pl",
    "mappableAddress": "101 W LUTHER PL Mansfield OH",
    "latitude": "40.7579712",
    "longitude": "-82.5194927",
    "order": "5",
    "full_order": "5.002"
  },
  {
    "turf": "Turf2",
    "precinct": "Man6a",
    "SOS_VOTERID": "OH0012668364",
    "name": "Martha Kondos",
    "age": "94",
    "shortAddress": "103 W Luther Pl",
    "mappableAddress": "103 W LUTHER PL Mansfield OH",
    "latitude": "40.7579767",
    "longitude": "-82.5195773",
    "order": "6",
    "full_order": "6"
  },
  {
    "turf": "Turf2",
    "precinct": "Man6a",
    "SOS_VOTERID": "OH0012668373",
    "name": "Martha Kondos",
    "age": "71",
    "shortAddress": "103 W Luther Pl",
    "mappableAddress": "103 W LUTHER PL Mansfield OH",
    "latitude": "40.7579767",
    "longitude": "-82.5195773",
    "order": "6",
    "full_order": "6.001"
  },
  {
    "turf": "Turf2",
    "precinct": "Man6a",
    "SOS_VOTERID": "OH0012695838",
    "name": "Teresa Potter",
    "age": "67",
    "shortAddress": "103 W Luther Pl",
    "mappableAddress": "103 W LUTHER PL Mansfield OH",
    "latitude": "40.7579767",
    "longitude": "-82.5195773",
    "order": "6",
    "full_order": "6.002"
  },
  {
    "turf": "Turf2",
    "precinct": "Man6a",
    "SOS_VOTERID": "OH0024237127",
    "name": "Kathleen Kondos",
    "age": "72",
    "shortAddress": "103 W Luther Pl",
    "mappableAddress": "103 W LUTHER PL Mansfield OH",
    "latitude": "40.7579767",
    "longitude": "-82.5195773",
    "order": "6",
    "full_order": "6.003"
  },
  {
    "turf": "Turf2",
    "precinct": "Man6a",
    "SOS_VOTERID": "OH0022680491",
    "name": "Lisa Daugherty",
    "age": "56",
    "shortAddress": "105 W Luther Pl",
    "mappableAddress": "105 W LUTHER PL Mansfield OH",
    "latitude": "40.7579877",
    "longitude": "-82.5197464",
    "order": "7",
    "full_order": "7.002"
  },
  {
    "turf": "Turf2",
    "precinct": "Man6a",
    "SOS_VOTERID": "OH0012687956",
    "name": "Aaron Caugherty",
    "age": "41",
    "shortAddress": "105 1/2 W Luther Pl",
    "mappableAddress": "105 W LUTHER PL Mansfield OH",
    "latitude": "40.7579877",
    "longitude": "-82.5197464",
    "order": "7",
    "full_order": "7.5"
  },
  {
    "turf": "Turf2",
    "precinct": "Man6a",
    "SOS_VOTERID": "OH0012668440",
    "name": "April Fuhrer",
    "age": "66",
    "shortAddress": "109 W Luther Pl",
    "mappableAddress": "109 W LUTHER PL Mansfield OH",
    "latitude": "40.7579648",
    "longitude": "-82.5200001",
    "order": "8",
    "full_order": "8"
  },
  {
    "turf": "Turf2",
    "precinct": "Man6a",
    "SOS_VOTERID": "OH0014359690",
    "name": "Raeann Harris",
    "age": "42",
    "shortAddress": "109 W Luther Pl",
    "mappableAddress": "109 W LUTHER PL Mansfield OH",
    "latitude": "40.7579648",
    "longitude": "-82.5200001",
    "order": "8",
    "full_order": "8.001"
  },
  {
    "turf": "Turf2",
    "precinct": "Man6a",
    "SOS_VOTERID": "OH0012714174",
    "name": "Brian Senokozlieff",
    "age": "58",
    "shortAddress": "102 W 2nd St",
    "mappableAddress": "102 W 2ND ST Mansfield OH",
    "latitude": "40.7576874",
    "longitude": "-82.5193659",
    "order": "9",
    "full_order": "9"
  },
  {
    "turf": "Turf2",
    "precinct": "Man6a",
    "SOS_VOTERID": "OH0019242193",
    "name": "Frank Farkas",
    "age": "59",
    "shortAddress": "102 W 2nd St Apt B",
    "mappableAddress": "102 W 2ND ST Mansfield OH",
    "latitude": "40.7576874",
    "longitude": "-82.5193659",
    "order": "9",
    "full_order": "9.002"
  },
  {
    "turf": "Turf2",
    "precinct": "Man6a",
    "SOS_VOTERID": "OH0012668894",
    "name": "Judy Corbett",
    "age": "68",
    "shortAddress": "104 W 2nd St",
    "mappableAddress": "104 W 2ND ST Mansfield OH",
    "latitude": "40.7574971",
    "longitude": "-82.5195538",
    "order": "10",
    "full_order": "10"
  },
  {
    "turf": "Turf2",
    "precinct": "Man6a",
    "SOS_VOTERID": "OH0020974931",
    "name": "Linda Copley",
    "age": "59",
    "shortAddress": "108 W 2nd St Apt 2",
    "mappableAddress": "108 W 2ND ST Mansfield OH",
    "latitude": "40.7577218",
    "longitude": "-82.5197248",
    "order": "11",
    "full_order": "11"
  },
  {
    "turf": "Turf2",
    "precinct": "Man6a",
    "SOS_VOTERID": "OH0012668702",
    "name": "Gregory Morris",
    "age": "62",
    "shortAddress": "108 W 2nd St Apt 4",
    "mappableAddress": "108 W 2ND ST Mansfield OH",
    "latitude": "40.7577218",
    "longitude": "-82.5197248",
    "order": "11",
    "full_order": "11.002"
  },
  {
    "turf": "Turf2",
    "precinct": "Man6a",
    "SOS_VOTERID": "OH0023100911",
    "name": "Michael Donahue",
    "age": "48",
    "shortAddress": "108 W 2nd St Apt 4",
    "mappableAddress": "108 W 2ND ST Mansfield OH",
    "latitude": "40.7577218",
    "longitude": "-82.5197248",
    "order": "11",
    "full_order": "11.003"
  },
  {
    "turf": "Turf2",
    "precinct": "Man6a",
    "SOS_VOTERID": "OH0023029220",
    "name": "Janice Borden",
    "age": "43",
    "shortAddress": "126 W 2nd St Apt 206",
    "mappableAddress": "126 W 2ND ST Mansfield OH",
    "latitude": "40.7578057",
    "longitude": "-82.5202411",
    "order": "12",
    "full_order": "12"
  },
  {
    "turf": "Turf2",
    "precinct": "Man6a",
    "SOS_VOTERID": "OH0016345306",
    "name": "Michael Goodwin",
    "age": "37",
    "shortAddress": "132 W 2nd St Apt 1",
    "mappableAddress": "132 W 2ND ST Mansfield OH",
    "latitude": "40.7577765",
    "longitude": "-82.520574",
    "order": "13",
    "full_order": "13"
  },
  {
    "turf": "Turf2",
    "precinct": "Man6a",
    "SOS_VOTERID": "OH0023155976",
    "name": "James Leppo",
    "age": "32",
    "shortAddress": "134 W 2nd St",
    "mappableAddress": "134 W 2ND ST Mansfield OH",
    "latitude": "40.7577848",
    "longitude": "-82.5206927",
    "order": "14",
    "full_order": "14.004"
  },
  {
    "turf": "Turf2",
    "precinct": "Man6a",
    "SOS_VOTERID": "OH0015623242",
    "name": "Mishan Mullins",
    "age": "32",
    "shortAddress": "134 1/2 W 2nd St",
    "mappableAddress": "134 W 2ND ST Mansfield OH",
    "latitude": "40.7577848",
    "longitude": "-82.5206927",
    "order": "14",
    "full_order": "14.3"
  },
  {
    "turf": "Turf2",
    "precinct": "Man6a",
    "SOS_VOTERID": "OH0018966127",
    "name": "Kendra Gamble",
    "age": "30",
    "shortAddress": "134 1/2 W 2nd St Apt B",
    "mappableAddress": "134 W 2ND ST Mansfield OH",
    "latitude": "40.7577848",
    "longitude": "-82.5206927",
    "order": "14",
    "full_order": "14.7"
  },
  {
    "turf": "Turf2",
    "precinct": "Man6a",
    "SOS_VOTERID": "OH0021407146",
    "name": "Isaiah Ellington",
    "age": "24",
    "shortAddress": "142 W 2nd St",
    "mappableAddress": "142 W 2ND ST Mansfield OH",
    "latitude": "40.7578471",
    "longitude": "-82.5209627",
    "order": "15",
    "full_order": "15"
  },
  {
    "turf": "Turf2",
    "precinct": "Man6a",
    "SOS_VOTERID": "OH0012670753",
    "name": "Jeffrey Powell",
    "age": "35",
    "shortAddress": "146 W 2nd St",
    "mappableAddress": "146 W 2ND ST Mansfield OH",
    "latitude": "40.7578557",
    "longitude": "-82.5211486",
    "order": "16",
    "full_order": "16"
  },
  {
    "turf": "Turf2",
    "precinct": "Man6a",
    "SOS_VOTERID": "OH0012668599",
    "name": "Louis Strubhar",
    "age": "60",
    "shortAddress": "154 W 2nd St",
    "mappableAddress": "154 W 2ND ST Mansfield OH",
    "latitude": "40.7578864",
    "longitude": "-82.521427",
    "order": "17",
    "full_order": "17"
  },
  {
    "turf": "Turf2",
    "precinct": "Man6a",
    "SOS_VOTERID": "OH0020113986",
    "name": "Jamery Jennings",
    "age": "56",
    "shortAddress": "154 W 2nd St Apt 108",
    "mappableAddress": "154 W 2ND ST Mansfield OH",
    "latitude": "40.7578864",
    "longitude": "-82.521427",
    "order": "17",
    "full_order": "17.002"
  },
  {
    "turf": "Turf2",
    "precinct": "Man6a",
    "SOS_VOTERID": "OH0012703867",
    "name": "Jill Leimeister",
    "age": "55",
    "shortAddress": "154 W 2nd St Apt 109",
    "mappableAddress": "154 W 2ND ST Mansfield OH",
    "latitude": "40.7578864",
    "longitude": "-82.521427",
    "order": "17",
    "full_order": "17.004"
  },
  {
    "turf": "Turf2",
    "precinct": "Man6a",
    "SOS_VOTERID": "OH0023103442",
    "name": "Crystal Bloomfield",
    "age": "23",
    "shortAddress": "154 W 2nd St Apt 309",
    "mappableAddress": "154 W 2ND ST Mansfield OH",
    "latitude": "40.7578864",
    "longitude": "-82.521427",
    "order": "17",
    "full_order": "17.006"
  },
  {
    "turf": "Turf2",
    "precinct": "Man6a",
    "SOS_VOTERID": "OH0023265310",
    "name": "Mark Porter",
    "age": "61",
    "shortAddress": "154 W 2nd St Apt 210",
    "mappableAddress": "154 W 2ND ST Mansfield OH",
    "latitude": "40.7578864",
    "longitude": "-82.521427",
    "order": "17",
    "full_order": "17.008"
  },
  {
    "turf": "Turf2",
    "precinct": "Man6a",
    "SOS_VOTERID": "OH0012667825",
    "name": "Myron Miller",
    "age": "53",
    "shortAddress": "156 W 2nd St",
    "mappableAddress": "156 W 2ND ST Mansfield OH",
    "latitude": "40.7575723",
    "longitude": "-82.5214807",
    "order": "18",
    "full_order": "18"
  },
  {
    "turf": "Turf2",
    "precinct": "Man6a",
    "SOS_VOTERID": "OH0024021052",
    "name": "Brenda Adams",
    "age": "60",
    "shortAddress": "156 W 2nd St",
    "mappableAddress": "156 W 2ND ST Mansfield OH",
    "latitude": "40.7575723",
    "longitude": "-82.5214807",
    "order": "18",
    "full_order": "18.001"
  },
  {
    "turf": "Turf2",
    "precinct": "Man6a",
    "SOS_VOTERID": "OH0024185639",
    "name": "Joseph Paniagua",
    "age": "61",
    "shortAddress": "156 W 2nd St Apt 106",
    "mappableAddress": "156 W 2ND ST Mansfield OH",
    "latitude": "40.7575723",
    "longitude": "-82.5214807",
    "order": "18",
    "full_order": "18.003"
  },
  {
    "turf": "Turf2",
    "precinct": "Man6a",
    "SOS_VOTERID": "OH0021484007",
    "name": "Angel Larue",
    "age": "33",
    "shortAddress": "156 W 2nd St Apt 206",
    "mappableAddress": "156 W 2ND ST Mansfield OH",
    "latitude": "40.7575723",
    "longitude": "-82.5214807",
    "order": "18",
    "full_order": "18.005"
  },
  {
    "turf": "Turf2",
    "precinct": "Man6a",
    "SOS_VOTERID": "OH0022820977",
    "name": "William Ball",
    "age": "47",
    "shortAddress": "156 W 2nd St Apt 206",
    "mappableAddress": "156 W 2ND ST Mansfield OH",
    "latitude": "40.7575723",
    "longitude": "-82.5214807",
    "order": "18",
    "full_order": "18.006"
  },
  {
    "turf": "Turf2",
    "precinct": "Man6a",
    "SOS_VOTERID": "OH0021852260",
    "name": "William Jenskins",
    "age": "32",
    "shortAddress": "156 W 2nd St Apt 306",
    "mappableAddress": "156 W 2ND ST Mansfield OH",
    "latitude": "40.7575723",
    "longitude": "-82.5214807",
    "order": "18",
    "full_order": "18.008"
  },
  {
    "turf": "Turf2",
    "precinct": "Man6a",
    "SOS_VOTERID": "OH0012697292",
    "name": "Toni Knowles",
    "age": "62",
    "shortAddress": "160 W 2nd St Apt 101",
    "mappableAddress": "160 W 2ND ST Mansfield OH",
    "latitude": "40.7575747",
    "longitude": "-82.5215509",
    "order": "19",
    "full_order": "19"
  },
  {
    "turf": "Turf2",
    "precinct": "Man6a",
    "SOS_VOTERID": "OH0012668946",
    "name": "Richard Minor",
    "age": "53",
    "shortAddress": "160 W 2nd St Apt 102",
    "mappableAddress": "160 W 2ND ST Mansfield OH",
    "latitude": "40.7575747",
    "longitude": "-82.5215509",
    "order": "19",
    "full_order": "19.002"
  },
  {
    "turf": "Turf2",
    "precinct": "Man6a",
    "SOS_VOTERID": "OH0015916044",
    "name": "Joseph Spreng",
    "age": "68",
    "shortAddress": "160 W 2nd St Apt 201",
    "mappableAddress": "160 W 2ND ST Mansfield OH",
    "latitude": "40.7575747",
    "longitude": "-82.5215509",
    "order": "19",
    "full_order": "19.004"
  },
  {
    "turf": "Turf2",
    "precinct": "Man6a",
    "SOS_VOTERID": "OH0019177024",
    "name": "Renee Jordan",
    "age": "55",
    "shortAddress": "160 W 2nd St Apt 202",
    "mappableAddress": "160 W 2ND ST Mansfield OH",
    "latitude": "40.7575747",
    "longitude": "-82.5215509",
    "order": "19",
    "full_order": "19.006"
  },
  {
    "turf": "Turf2",
    "precinct": "Man6a",
    "SOS_VOTERID": "OH0021895699",
    "name": "Ginger Cates",
    "age": "58",
    "shortAddress": "160 W 2nd St Apt 302",
    "mappableAddress": "160 W 2ND ST Mansfield OH",
    "latitude": "40.7575747",
    "longitude": "-82.5215509",
    "order": "19",
    "full_order": "19.008"
  },
  {
    "turf": "Turf2",
    "precinct": "Man6a",
    "SOS_VOTERID": "OH0022965589",
    "name": "Caleb Sarge",
    "age": "25",
    "shortAddress": "160 W 2nd St Apt 302",
    "mappableAddress": "160 W 2ND ST Mansfield OH",
    "latitude": "40.7575747",
    "longitude": "-82.5215509",
    "order": "19",
    "full_order": "19.009"
  },
  {
    "turf": "Turf2",
    "precinct": "Man6a",
    "SOS_VOTERID": "OH0012668557",
    "name": "Theresa Herlihy",
    "age": "47",
    "shortAddress": "170 W 2nd St",
    "mappableAddress": "170 W 2ND ST Mansfield OH",
    "latitude": "40.7578977",
    "longitude": "-82.5217079",
    "order": "20",
    "full_order": "20"
  },
  {
    "turf": "Turf2",
    "precinct": "Man6a",
    "SOS_VOTERID": "OH0012668690",
    "name": "Osbaldo Rodriguez",
    "age": "72",
    "shortAddress": "186 W 2nd St",
    "mappableAddress": "186 W 2ND ST Mansfield OH",
    "latitude": "40.7576131",
    "longitude": "-82.5225547",
    "order": "21",
    "full_order": "21"
  },
  {
    "turf": "Turf2",
    "precinct": "Man6a",
    "SOS_VOTERID": "OH0021624877",
    "name": "Randy Brown",
    "age": "45",
    "shortAddress": "47 Sturges Ave",
    "mappableAddress": "47 STURGES AVE Mansfield OH",
    "latitude": "40.7574619",
    "longitude": "-82.522595",
    "order": "22",
    "full_order": "22.002"
  },
  {
    "turf": "Turf2",
    "precinct": "Man6a",
    "SOS_VOTERID": "OH0023138221",
    "name": "Taylor Wittig",
    "age": "24",
    "shortAddress": "47 1/2 Sturges Ave",
    "mappableAddress": "47 STURGES AVE Mansfield OH",
    "latitude": "40.7574619",
    "longitude": "-82.522595",
    "order": "22",
    "full_order": "22.5"
  },
  {
    "turf": "Turf2",
    "precinct": "Man6a",
    "SOS_VOTERID": "OH0020294809",
    "name": "Monya Angel",
    "age": "50",
    "shortAddress": "51 1/2 Sturges Ave",
    "mappableAddress": "51 STURGES AVE Mansfield OH",
    "latitude": "40.7573642",
    "longitude": "-82.522875",
    "order": "23",
    "full_order": "23.002"
  },
  {
    "turf": "Turf2",
    "precinct": "Man6a",
    "SOS_VOTERID": "OH0012669017",
    "name": "Timothy Hillman",
    "age": "41",
    "shortAddress": "193 W 2nd St Apt 1",
    "mappableAddress": "193 W 2ND ST Mansfield OH",
    "latitude": "40.7576185",
    "longitude": "-82.5227296",
    "order": "41",
    "full_order": "24"
  },
  {
    "turf": "Turf2",
    "precinct": "Man6a",
    "SOS_VOTERID": "OH0021193376",
    "name": "Marquis Selmon",
    "age": "29",
    "shortAddress": "193 W 2nd St Apt 3",
    "mappableAddress": "193 W 2ND ST Mansfield OH",
    "latitude": "40.7576185",
    "longitude": "-82.5227296",
    "order": "41",
    "full_order": "25"
  },
  {
    "turf": "Turf2",
    "precinct": "Man6a",
    "SOS_VOTERID": "OH0012668392",
    "name": "Donald Karl",
    "age": "65",
    "shortAddress": "191 W 2nd St",
    "mappableAddress": "191 W 2ND ST Mansfield OH",
    "latitude": "40.7576158",
    "longitude": "-82.5226402",
    "order": "40",
    "full_order": "26"
  },
  {
    "turf": "Turf2",
    "precinct": "Man6a",
    "SOS_VOTERID": "OH0024187671",
    "name": "Korbin Dodrill",
    "age": "21",
    "shortAddress": "183 W 2nd St Apt 1",
    "mappableAddress": "183 W 2ND ST Mansfield OH",
    "latitude": "40.7572445",
    "longitude": "-82.5223026",
    "order": "39",
    "full_order": "27"
  },
  {
    "turf": "Turf2",
    "precinct": "Man6a",
    "SOS_VOTERID": "OH0020231758",
    "name": "Emmanuel Harris",
    "age": "38",
    "shortAddress": "177 W 2nd St",
    "mappableAddress": "177 W 2ND ST Mansfield OH",
    "latitude": "40.7572367",
    "longitude": "-82.5220854",
    "order": "38",
    "full_order": "28"
  },
  {
    "turf": "Turf2",
    "precinct": "Man6a",
    "SOS_VOTERID": "OH0023708362",
    "name": "Daryletta Wheeler",
    "age": "28",
    "shortAddress": "177 W 2nd St",
    "mappableAddress": "177 W 2ND ST Mansfield OH",
    "latitude": "40.7572367",
    "longitude": "-82.5220854",
    "order": "38",
    "full_order": "28"
  },
  {
    "turf": "Turf2",
    "precinct": "Man6a",
    "SOS_VOTERID": "OH0012668604",
    "name": "Shelly Brown",
    "age": "46",
    "shortAddress": "173 W 2nd St",
    "mappableAddress": "173 W 2ND ST Mansfield OH",
    "latitude": "40.7572297",
    "longitude": "-82.521902",
    "order": "37",
    "full_order": "29"
  },
  {
    "turf": "Turf2",
    "precinct": "Man6a",
    "SOS_VOTERID": "OH0012663985",
    "name": "Susan Zimmer",
    "age": "64",
    "shortAddress": "171 W 2nd St",
    "mappableAddress": "171 W 2ND ST Mansfield OH",
    "latitude": "40.7575831",
    "longitude": "-82.5218017",
    "order": "37",
    "full_order": "30"
  },
  {
    "turf": "Turf2",
    "precinct": "Man6a",
    "SOS_VOTERID": "OH0023235283",
    "name": "Daniel Murray",
    "age": "24",
    "shortAddress": "171 W 2nd St",
    "mappableAddress": "171 W 2ND ST Mansfield OH",
    "latitude": "40.7575831",
    "longitude": "-82.5218017",
    "order": "37",
    "full_order": "30"
  },
  {
    "turf": "Turf2",
    "precinct": "Man6a",
    "SOS_VOTERID": "OH0021629153",
    "name": "Roby Martin",
    "age": "55",
    "shortAddress": "161 W 2nd St Apt A",
    "mappableAddress": "161 W 2ND ST Mansfield OH",
    "latitude": "40.7575723",
    "longitude": "-82.5214814",
    "order": "36",
    "full_order": "31"
  },
  {
    "turf": "Turf2",
    "precinct": "Man6a",
    "SOS_VOTERID": "OH0012664564",
    "name": "Latasha Lane",
    "age": "44",
    "shortAddress": "161 W 2nd St Apt C",
    "mappableAddress": "161 W 2ND ST Mansfield OH",
    "latitude": "40.7575723",
    "longitude": "-82.5214814",
    "order": "36",
    "full_order": "32"
  },
  {
    "turf": "Turf2",
    "precinct": "Man6a",
    "SOS_VOTERID": "OH0023914040",
    "name": "Lakisha Horton",
    "age": "22",
    "shortAddress": "161 W 2nd St Apt F",
    "mappableAddress": "161 W 2ND ST Mansfield OH",
    "latitude": "40.7575723",
    "longitude": "-82.5214814",
    "order": "36",
    "full_order": "33"
  },
  {
    "turf": "Turf2",
    "precinct": "Man6a",
    "SOS_VOTERID": "OH0012669058",
    "name": "Ronald Hordge",
    "age": "60",
    "shortAddress": "155 W 2nd St Apt C",
    "mappableAddress": "155 W 2ND ST Mansfield OH",
    "latitude": "40.7575661",
    "longitude": "-82.5212946",
    "order": "35",
    "full_order": "34"
  },
  {
    "turf": "Turf2",
    "precinct": "Man6a",
    "SOS_VOTERID": "OH0021143624",
    "name": "Debbie Hordge",
    "age": "56",
    "shortAddress": "155 W 2nd St Apt C",
    "mappableAddress": "155 W 2ND ST Mansfield OH",
    "latitude": "40.7575661",
    "longitude": "-82.5212946",
    "order": "35",
    "full_order": "34"
  },
  {
    "turf": "Turf2",
    "precinct": "Man6a",
    "SOS_VOTERID": "OH0012694346",
    "name": "Lemarco Robinson",
    "age": "35",
    "shortAddress": "155 W 2nd St Apt D",
    "mappableAddress": "155 W 2ND ST Mansfield OH",
    "latitude": "40.7575661",
    "longitude": "-82.5212946",
    "order": "35",
    "full_order": "35"
  },
  {
    "turf": "Turf2",
    "precinct": "Man6a",
    "SOS_VOTERID": "OH0023145095",
    "name": "Roger Mcneely",
    "age": "56",
    "shortAddress": "155 W 2nd St Apt F",
    "mappableAddress": "155 W 2ND ST Mansfield OH",
    "latitude": "40.7575661",
    "longitude": "-82.5212946",
    "order": "35",
    "full_order": "36"
  },
  {
    "turf": "Turf2",
    "precinct": "Man6a",
    "SOS_VOTERID": "OH0024158372",
    "name": "Raccio Feagin",
    "age": "64",
    "shortAddress": "155 W 2nd St Apt F",
    "mappableAddress": "155 W 2ND ST Mansfield OH",
    "latitude": "40.7575661",
    "longitude": "-82.5212946",
    "order": "35",
    "full_order": "36"
  },
  {
    "turf": "Turf2",
    "precinct": "Man6a",
    "SOS_VOTERID": "OH0012668777",
    "name": "Russell Haywood",
    "age": "80",
    "shortAddress": "125 W 2nd St",
    "mappableAddress": "125 W 2ND ST Mansfield OH",
    "latitude": "40.7571813",
    "longitude": "-82.5203175",
    "order": "34",
    "full_order": "37"
  },
  {
    "turf": "Turf2",
    "precinct": "Man6a",
    "SOS_VOTERID": "OH0022866886",
    "name": "Patricia Rabquer",
    "age": "49",
    "shortAddress": "125 W 2nd St Apt 2",
    "mappableAddress": "125 W 2ND ST Mansfield OH",
    "latitude": "40.7571813",
    "longitude": "-82.5203175",
    "order": "34",
    "full_order": "38"
  },
  {
    "turf": "Turf2",
    "precinct": "Man6a",
    "SOS_VOTERID": "OH0022971943",
    "name": "Bernard Smith",
    "age": "69",
    "shortAddress": "125 W 2nd St Apt 3",
    "mappableAddress": "125 W 2ND ST Mansfield OH",
    "latitude": "40.7571813",
    "longitude": "-82.5203175",
    "order": "34",
    "full_order": "39"
  },
  {
    "turf": "Turf2",
    "precinct": "Man6a",
    "SOS_VOTERID": "OH0021449415",
    "name": "Marc Hess",
    "age": "61",
    "shortAddress": "125 W 2nd St Apt 4",
    "mappableAddress": "125 W 2ND ST Mansfield OH",
    "latitude": "40.7571813",
    "longitude": "-82.5203175",
    "order": "34",
    "full_order": "40"
  },
  {
    "turf": "Turf2",
    "precinct": "Man6a",
    "SOS_VOTERID": "OH0020898789",
    "name": "Nennie Lawhorn",
    "age": "49",
    "shortAddress": "125 W 2nd St Apt 8",
    "mappableAddress": "125 W 2ND ST Mansfield OH",
    "latitude": "40.7571813",
    "longitude": "-82.5203175",
    "order": "34",
    "full_order": "41"
  },
  {
    "turf": "Turf2",
    "precinct": "Man6a",
    "SOS_VOTERID": "OH0012653915",
    "name": "Julie Kilgore",
    "age": "62",
    "shortAddress": "121 W 2nd St Apt 1",
    "mappableAddress": "121 W 2ND ST Mansfield OH",
    "latitude": "40.7571766",
    "longitude": "-82.5201631",
    "order": "33",
    "full_order": "42"
  },
  {
    "turf": "Turf2",
    "precinct": "Man6a",
    "SOS_VOTERID": "OH0020744405",
    "name": "Timothy Kilgore",
    "age": "26",
    "shortAddress": "121 W 2nd St Apt 1",
    "mappableAddress": "121 W 2ND ST Mansfield OH",
    "latitude": "40.7571766",
    "longitude": "-82.5201631",
    "order": "33",
    "full_order": "42"
  },
  {
    "turf": "Turf2",
    "precinct": "Man6a",
    "SOS_VOTERID": "OH0022833156",
    "name": "Taylor Kilgore",
    "age": "24",
    "shortAddress": "121 W 2nd St Apt 1",
    "mappableAddress": "121 W 2ND ST Mansfield OH",
    "latitude": "40.7571766",
    "longitude": "-82.5201631",
    "order": "33",
    "full_order": "42"
  },
  {
    "turf": "Turf2",
    "precinct": "Man6a",
    "SOS_VOTERID": "OH0019199542",
    "name": "Erica Snyder",
    "age": "30",
    "shortAddress": "121 W 2nd St Rear",
    "mappableAddress": "121 W 2ND ST Mansfield OH",
    "latitude": "40.7571766",
    "longitude": "-82.5201631",
    "order": "33",
    "full_order": "43"
  },
  {
    "turf": "Turf2",
    "precinct": "Man6a",
    "SOS_VOTERID": "OH0012668696",
    "name": "Barbara Jackson",
    "age": "51",
    "shortAddress": "105 1/2 W 2nd St",
    "mappableAddress": "105 W 2ND ST Mansfield OH",
    "latitude": "40.7571534",
    "longitude": "-82.5195838",
    "order": "32",
    "full_order": "44"
  },
  {
    "turf": "Turf2",
    "precinct": "Man6a",
    "SOS_VOTERID": "OH0019296969",
    "name": "Brittany Jackson",
    "age": "28",
    "shortAddress": "105 W 2nd St",
    "mappableAddress": "105 W 2ND ST Mansfield OH",
    "latitude": "40.7571534",
    "longitude": "-82.5195838",
    "order": "32",
    "full_order": "45"
  },
  {
    "turf": "Turf2",
    "precinct": "Man6a",
    "SOS_VOTERID": "OH0012668533",
    "name": "Albert Britton",
    "age": "69",
    "shortAddress": "99 W 2nd St",
    "mappableAddress": "99 W 2ND ST Mansfield OH",
    "latitude": "40.7572993",
    "longitude": "-82.5194505",
    "order": "31",
    "full_order": "46"
  },
  {
    "turf": "Turf2",
    "precinct": "Man6a",
    "SOS_VOTERID": "OH0012668348",
    "name": "Mary Campbell",
    "age": "92",
    "shortAddress": "104 W 1st St",
    "mappableAddress": "104 W 1ST ST Mansfield OH",
    "latitude": "40.7565697",
    "longitude": "-82.5194293",
    "order": "30",
    "full_order": "47"
  },
  {
    "turf": "Turf2",
    "precinct": "Man6a",
    "SOS_VOTERID": "OH0012668457",
    "name": "Rosemary Bingert",
    "age": "92",
    "shortAddress": "104 W 1st St",
    "mappableAddress": "104 W 1ST ST Mansfield OH",
    "latitude": "40.7565697",
    "longitude": "-82.5194293",
    "order": "30",
    "full_order": "47"
  },
  {
    "turf": "Turf2",
    "precinct": "Man6a",
    "SOS_VOTERID": "OH0012668928",
    "name": "Tracy Shorter",
    "age": "48",
    "shortAddress": "116 1/2 W 1st St",
    "mappableAddress": "116 W 1ST ST Mansfield OH",
    "latitude": "40.756653",
    "longitude": "-82.520095",
    "order": "29",
    "full_order": "48"
  },
  {
    "turf": "Turf2",
    "precinct": "Man6a",
    "SOS_VOTERID": "OH0012668516",
    "name": "Mary Isch",
    "age": "62",
    "shortAddress": "120 W 1st St",
    "mappableAddress": "120 W 1ST ST Mansfield OH",
    "latitude": "40.7564855",
    "longitude": "-82.5202537",
    "order": "28",
    "full_order": "49"
  },
  {
    "turf": "Turf2",
    "precinct": "Man6a",
    "SOS_VOTERID": "OH0012668602",
    "name": "Robbie Scarbury",
    "age": "51",
    "shortAddress": "122 W 1st St",
    "mappableAddress": "122 W 1ST ST Mansfield OH",
    "latitude": "40.756579",
    "longitude": "-82.5203121",
    "order": "27",
    "full_order": "50"
  },
  {
    "turf": "Turf2",
    "precinct": "Man6a",
    "SOS_VOTERID": "OH0012668654",
    "name": "James Scarbury",
    "age": "59",
    "shortAddress": "122 W 1st St",
    "mappableAddress": "122 W 1ST ST Mansfield OH",
    "latitude": "40.756579",
    "longitude": "-82.5203121",
    "order": "27",
    "full_order": "50"
  },
  {
    "turf": "Turf2",
    "precinct": "Man6a",
    "SOS_VOTERID": "OH0024182504",
    "name": "Joshua Scarbury",
    "age": "22",
    "shortAddress": "122 W 1st St",
    "mappableAddress": "122 W 1ST ST Mansfield OH",
    "latitude": "40.756579",
    "longitude": "-82.5203121",
    "order": "27",
    "full_order": "50"
  },
  {
    "turf": "Turf2",
    "precinct": "Man6a",
    "SOS_VOTERID": "OH0021940643",
    "name": "Jacob Scarbury",
    "age": "24",
    "shortAddress": "122 W 1st St",
    "mappableAddress": "122 W 1ST ST Mansfield OH",
    "latitude": "40.756579",
    "longitude": "-82.5203121",
    "order": "27",
    "full_order": "50"
  },
  {
    "turf": "Turf2",
    "precinct": "Man6a",
    "SOS_VOTERID": "OH0021474321",
    "name": "Darron Mask",
    "age": "60",
    "shortAddress": "158 W 1st St",
    "mappableAddress": "158 W 1ST ST Mansfield OH",
    "latitude": "40.756677",
    "longitude": "-82.521493",
    "order": "26",
    "full_order": "51"
  },
  {
    "turf": "Turf2",
    "precinct": "Man6a",
    "SOS_VOTERID": "OH0022869395",
    "name": "Kalina Latour",
    "age": "35",
    "shortAddress": "158 1/2 W 1st St",
    "mappableAddress": "158 W 1ST ST Mansfield OH",
    "latitude": "40.756677",
    "longitude": "-82.521493",
    "order": "26",
    "full_order": "52"
  },
  {
    "turf": "Turf2",
    "precinct": "Man6a",
    "SOS_VOTERID": "OH0012668597",
    "name": "Alan Raphael",
    "age": "58",
    "shortAddress": "174 W 1st St",
    "mappableAddress": "174 W 1ST ST Mansfield OH",
    "latitude": "40.7569239",
    "longitude": "-82.5221563",
    "order": "25",
    "full_order": "53"
  },
  {
    "turf": "Turf2",
    "precinct": "Man6a",
    "SOS_VOTERID": "OH0012660222",
    "name": "Deborah Mitchell",
    "age": "64",
    "shortAddress": "178 W 1st St",
    "mappableAddress": "178 W 1ST ST Mansfield OH",
    "latitude": "40.7567077",
    "longitude": "-82.5222368",
    "order": "24",
    "full_order": "54"
  },
  {
    "turf": "Turf2",
    "precinct": "Man6a",
    "SOS_VOTERID": "OH0012668359",
    "name": "Rose Martin",
    "age": "79",
    "shortAddress": "182 W 1st St",
    "mappableAddress": "182 W 1ST ST Mansfield OH",
    "latitude": "40.7566227",
    "longitude": "-82.5223677",
    "order": "23",
    "full_order": "55"
  },
  {
    "turf": "Turf2",
    "precinct": "Man6a",
    "SOS_VOTERID": "OH0023966112",
    "name": "George Clark",
    "age": "57",
    "shortAddress": "90 Sturges Ave",
    "mappableAddress": "90 STURGES AVE Mansfield OH",
    "latitude": "40.756325",
    "longitude": "-82.523345",
    "order": "45",
    "full_order": "55.5"
  },
  {
    "turf": "Turf2",
    "precinct": "Man6a",
    "SOS_VOTERID": "OH0020188116",
    "name": "Charles Noble",
    "age": "62",
    "shortAddress": "231 W 1st St",
    "mappableAddress": "231 W 1ST ST Mansfield OH",
    "latitude": "40.7564287",
    "longitude": "-82.5243456",
    "order": "44",
    "full_order": "56"
  },
  {
    "turf": "Turf2",
    "precinct": "Man6a",
    "SOS_VOTERID": "OH0012725325",
    "name": "Holly Debolt",
    "age": "33",
    "shortAddress": "82 Sturges Ave",
    "mappableAddress": "82 STURGES AVE Mansfield OH",
    "latitude": "40.7565924",
    "longitude": "-82.5237205",
    "order": "43",
    "full_order": "57"
  },
  {
    "turf": "Turf2",
    "precinct": "Man6a",
    "SOS_VOTERID": "OH0012668707",
    "name": "Sally Collins",
    "age": "44",
    "shortAddress": "58 Sturges Ave Apt 2",
    "mappableAddress": "58 STURGES AVE Mansfield OH",
    "latitude": "40.7572231",
    "longitude": "-82.5240376",
    "order": "42.5",
    "full_order": "58"
  },
  {
    "turf": "Turf2",
    "precinct": "Man6a",
    "SOS_VOTERID": "OH0021334078",
    "name": "Carolyn Adams",
    "age": "76",
    "shortAddress": "58 Sturges Ave Apt 3 Rear",
    "mappableAddress": "58 STURGES AVE Mansfield OH",
    "latitude": "40.7572231",
    "longitude": "-82.5240376",
    "order": "42.5",
    "full_order": "59"
  },
  {
    "turf": "Turf2",
    "precinct": "Man6a",
    "SOS_VOTERID": "OH0012703847",
    "name": "Ed Davis",
    "age": "53",
    "shortAddress": "58 Sturges Ave Apt 5",
    "mappableAddress": "58 STURGES AVE Mansfield OH",
    "latitude": "40.7572231",
    "longitude": "-82.5240376",
    "order": "42.5",
    "full_order": "60"
  },
  {
    "turf": "Turf2",
    "precinct": "Man6a",
    "SOS_VOTERID": "OH0012699722",
    "name": "John Horner",
    "age": "63",
    "shortAddress": "34 Sturges Ave",
    "mappableAddress": "34 STURGES AVE Mansfield OH",
    "latitude": "40.7579042",
    "longitude": "-82.5236148",
    "order": "42",
    "full_order": "61"
  },
  {
    "turf": "Turf2",
    "precinct": "Man6a",
    "SOS_VOTERID": "OH0012723456",
    "name": "Anica Horner",
    "age": "59",
    "shortAddress": "34 Sturges Ave",
    "mappableAddress": "34 STURGES AVE Mansfield OH",
    "latitude": "40.7579042",
    "longitude": "-82.5236148",
    "order": "42",
    "full_order": "61"
  }
]