[
  {
    "sosId": "OH0023666784",
    "name": "Henry Konczak",
    "age": "65",
    "shortAddress": "1 Marion Ave Apt 309",
    "precinct": "Man6a",
    "mappableAddress": "1 MARION AVE Mansfield OH",
    "longitude": -82.5237033,
    "latitude": 40.7584692,
    "turf": "Turf2",
    "order": 2,
    "full_order": 2
  },
  {
    "sosId": "OH0014737509",
    "name": "Deborah Mack",
    "age": "54",
    "shortAddress": "1 Marion Ave Ste 204",
    "precinct": "Man6a",
    "mappableAddress": "1 MARION AVE Mansfield OH",
    "longitude": -82.5237033,
    "latitude": 40.7584692,
    "turf": "Turf2",
    "order": 2,
    "full_order": 2.002
  },
  {
    "sosId": "OH0012731467",
    "name": "James Enyart",
    "age": "63",
    "shortAddress": "173 Park Ave W",
    "precinct": "Man6a",
    "mappableAddress": "173 PARK AVE W Mansfield OH",
    "longitude": -82.5220083,
    "latitude": 40.7585085,
    "turf": "Turf2",
    "order": 3,
    "full_order": 3
  },
  {
    "sosId": "OH0012670145",
    "name": "Tony Oneil",
    "age": "51",
    "shortAddress": "137 Park Ave W",
    "precinct": "Man6a",
    "mappableAddress": "137 PARK AVE W Mansfield OH",
    "longitude": -82.52074,
    "latitude": 40.7583474,
    "turf": "Turf2",
    "order": 4,
    "full_order": 4
  },
  {
    "sosId": "OH0019107248",
    "name": "Russell Brown",
    "age": "31",
    "shortAddress": "137 Park Ave W Apt 112",
    "precinct": "Man6a",
    "mappableAddress": "137 PARK AVE W Mansfield OH",
    "longitude": -82.52074,
    "latitude": 40.7583474,
    "turf": "Turf2",
    "order": 4,
    "full_order": 4.002
  },
  {
    "sosId": "OH0012701333",
    "name": "James Backensto",
    "age": "59",
    "shortAddress": "137 Park Ave W Apt 114",
    "precinct": "Man6a",
    "mappableAddress": "137 PARK AVE W Mansfield OH",
    "longitude": -82.52074,
    "latitude": 40.7583474,
    "turf": "Turf2",
    "order": 4,
    "full_order": 4.004
  },
  {
    "sosId": "OH0024064084",
    "name": "Antonio Garcia",
    "age": "51",
    "shortAddress": "137 Park Ave W Apt 224",
    "precinct": "Man6a",
    "mappableAddress": "137 PARK AVE W Mansfield OH",
    "longitude": -82.52074,
    "latitude": 40.7583474,
    "turf": "Turf2",
    "order": 4,
    "full_order": 4.006
  },
  {
    "sosId": "OH0012668718",
    "name": "Michael Whitcomb",
    "age": "42",
    "shortAddress": "137 Park Ave W Rm 211",
    "precinct": "Man6a",
    "mappableAddress": "137 PARK AVE W Mansfield OH",
    "longitude": -82.52074,
    "latitude": 40.7583474,
    "turf": "Turf2",
    "order": 4,
    "full_order": 4.008
  },
  {
    "sosId": "OH0023416598",
    "name": "John Peppard",
    "age": "50",
    "shortAddress": "101 W Luther Pl",
    "precinct": "Man6a",
    "mappableAddress": "101 W LUTHER PL Mansfield OH",
    "longitude": -82.5194927,
    "latitude": 40.7579712,
    "turf": "Turf2",
    "order": 5,
    "full_order": 5
  },
  {
    "sosId": "OH0024198820",
    "name": "Rachel Reed",
    "age": "23",
    "shortAddress": "101 W Luther Pl",
    "precinct": "Man6a",
    "mappableAddress": "101 W LUTHER PL Mansfield OH",
    "longitude": -82.5194927,
    "latitude": 40.7579712,
    "turf": "Turf2",
    "order": 5,
    "full_order": 5.001
  },
  {
    "sosId": "OH0024198827",
    "name": "Jonathan Cavendish",
    "age": "27",
    "shortAddress": "101 W Luther Pl",
    "precinct": "Man6a",
    "mappableAddress": "101 W LUTHER PL Mansfield OH",
    "longitude": -82.5194927,
    "latitude": 40.7579712,
    "turf": "Turf2",
    "order": 5,
    "full_order": 5.002
  },
  {
    "sosId": "OH0012668364",
    "name": "Martha Kondos",
    "age": "94",
    "shortAddress": "103 W Luther Pl",
    "precinct": "Man6a",
    "mappableAddress": "103 W LUTHER PL Mansfield OH",
    "longitude": -82.5195773,
    "latitude": 40.7579767,
    "turf": "Turf2",
    "order": 6,
    "full_order": 6
  },
  {
    "sosId": "OH0012668373",
    "name": "Martha Kondos",
    "age": "71",
    "shortAddress": "103 W Luther Pl",
    "precinct": "Man6a",
    "mappableAddress": "103 W LUTHER PL Mansfield OH",
    "longitude": -82.5195773,
    "latitude": 40.7579767,
    "turf": "Turf2",
    "order": 6,
    "full_order": 6.001
  },
  {
    "sosId": "OH0012695838",
    "name": "Teresa Potter",
    "age": "67",
    "shortAddress": "103 W Luther Pl",
    "precinct": "Man6a",
    "mappableAddress": "103 W LUTHER PL Mansfield OH",
    "longitude": -82.5195773,
    "latitude": 40.7579767,
    "turf": "Turf2",
    "order": 6,
    "full_order": 6.002
  },
  {
    "sosId": "OH0024237127",
    "name": "Kathleen Kondos",
    "age": "72",
    "shortAddress": "103 W Luther Pl",
    "precinct": "Man6a",
    "mappableAddress": "103 W LUTHER PL Mansfield OH",
    "longitude": -82.5195773,
    "latitude": 40.7579767,
    "turf": "Turf2",
    "order": 6,
    "full_order": 6.003
  },
  {
    "sosId": "OH0022680491",
    "name": "Lisa Daugherty",
    "age": "56",
    "shortAddress": "105 W Luther Pl",
    "precinct": "Man6a",
    "mappableAddress": "105 W LUTHER PL Mansfield OH",
    "longitude": -82.5197464,
    "latitude": 40.7579877,
    "turf": "Turf2",
    "order": 7,
    "full_order": 7.002
  },
  {
    "sosId": "OH0012687956",
    "name": "Aaron Caugherty",
    "age": "41",
    "shortAddress": "105 1/2 W Luther Pl",
    "precinct": "Man6a",
    "mappableAddress": "105 W LUTHER PL Mansfield OH",
    "longitude": -82.5197464,
    "latitude": 40.7579877,
    "turf": "Turf2",
    "order": 7,
    "full_order": 7.5
  },
  {
    "sosId": "OH0012668440",
    "name": "April Fuhrer",
    "age": "66",
    "shortAddress": "109 W Luther Pl",
    "precinct": "Man6a",
    "mappableAddress": "109 W LUTHER PL Mansfield OH",
    "longitude": -82.5200001,
    "latitude": 40.7579648,
    "turf": "Turf2",
    "order": 8,
    "full_order": 8
  },
  {
    "sosId": "OH0014359690",
    "name": "Raeann Harris",
    "age": "42",
    "shortAddress": "109 W Luther Pl",
    "precinct": "Man6a",
    "mappableAddress": "109 W LUTHER PL Mansfield OH",
    "longitude": -82.5200001,
    "latitude": 40.7579648,
    "turf": "Turf2",
    "order": 8,
    "full_order": 8.001
  },
  {
    "sosId": "OH0012714174",
    "name": "Brian Senokozlieff",
    "age": "58",
    "shortAddress": "102 W 2nd St",
    "precinct": "Man6a",
    "mappableAddress": "102 W 2ND ST Mansfield OH",
    "longitude": -82.5193659,
    "latitude": 40.7576874,
    "turf": "Turf2",
    "order": 9,
    "full_order": 9
  },
  {
    "sosId": "OH0019242193",
    "name": "Frank Farkas",
    "age": "59",
    "shortAddress": "102 W 2nd St Apt B",
    "precinct": "Man6a",
    "mappableAddress": "102 W 2ND ST Mansfield OH",
    "longitude": -82.5193659,
    "latitude": 40.7576874,
    "turf": "Turf2",
    "order": 9,
    "full_order": 9.002
  },
  {
    "sosId": "OH0012668894",
    "name": "Judy Corbett",
    "age": "68",
    "shortAddress": "104 W 2nd St",
    "precinct": "Man6a",
    "mappableAddress": "104 W 2ND ST Mansfield OH",
    "longitude": -82.5195538,
    "latitude": 40.7574971,
    "turf": "Turf2",
    "order": 10,
    "full_order": 10
  },
  {
    "sosId": "OH0020974931",
    "name": "Linda Copley",
    "age": "59",
    "shortAddress": "108 W 2nd St Apt 2",
    "precinct": "Man6a",
    "mappableAddress": "108 W 2ND ST Mansfield OH",
    "longitude": -82.5197248,
    "latitude": 40.7577218,
    "turf": "Turf2",
    "order": 11,
    "full_order": 11
  },
  {
    "sosId": "OH0012668702",
    "name": "Gregory Morris",
    "age": "62",
    "shortAddress": "108 W 2nd St Apt 4",
    "precinct": "Man6a",
    "mappableAddress": "108 W 2ND ST Mansfield OH",
    "longitude": -82.5197248,
    "latitude": 40.7577218,
    "turf": "Turf2",
    "order": 11,
    "full_order": 11.002
  },
  {
    "sosId": "OH0023100911",
    "name": "Michael Donahue",
    "age": "48",
    "shortAddress": "108 W 2nd St Apt 4",
    "precinct": "Man6a",
    "mappableAddress": "108 W 2ND ST Mansfield OH",
    "longitude": -82.5197248,
    "latitude": 40.7577218,
    "turf": "Turf2",
    "order": 11,
    "full_order": 11.003
  },
  {
    "sosId": "OH0023029220",
    "name": "Janice Borden",
    "age": "43",
    "shortAddress": "126 W 2nd St Apt 206",
    "precinct": "Man6a",
    "mappableAddress": "126 W 2ND ST Mansfield OH",
    "longitude": -82.5202411,
    "latitude": 40.7578057,
    "turf": "Turf2",
    "order": 12,
    "full_order": 12
  },
  {
    "sosId": "OH0016345306",
    "name": "Michael Goodwin",
    "age": "37",
    "shortAddress": "132 W 2nd St Apt 1",
    "precinct": "Man6a",
    "mappableAddress": "132 W 2ND ST Mansfield OH",
    "longitude": -82.520574,
    "latitude": 40.7577765,
    "turf": "Turf2",
    "order": 13,
    "full_order": 13
  },
  {
    "sosId": "OH0023155976",
    "name": "James Leppo",
    "age": "32",
    "shortAddress": "134 W 2nd St",
    "precinct": "Man6a",
    "mappableAddress": "134 W 2ND ST Mansfield OH",
    "longitude": -82.5206927,
    "latitude": 40.7577848,
    "turf": "Turf2",
    "order": 14,
    "full_order": 14.004
  },
  {
    "sosId": "OH0015623242",
    "name": "Mishan Mullins",
    "age": "32",
    "shortAddress": "134 1/2 W 2nd St",
    "precinct": "Man6a",
    "mappableAddress": "134 W 2ND ST Mansfield OH",
    "longitude": -82.5206927,
    "latitude": 40.7577848,
    "turf": "Turf2",
    "order": 14,
    "full_order": 14.3
  },
  {
    "sosId": "OH0018966127",
    "name": "Kendra Gamble",
    "age": "30",
    "shortAddress": "134 1/2 W 2nd St Apt B",
    "precinct": "Man6a",
    "mappableAddress": "134 W 2ND ST Mansfield OH",
    "longitude": -82.5206927,
    "latitude": 40.7577848,
    "turf": "Turf2",
    "order": 14,
    "full_order": 14.7
  },
  {
    "sosId": "OH0021407146",
    "name": "Isaiah Ellington",
    "age": "24",
    "shortAddress": "142 W 2nd St",
    "precinct": "Man6a",
    "mappableAddress": "142 W 2ND ST Mansfield OH",
    "longitude": -82.5209627,
    "latitude": 40.7578471,
    "turf": "Turf2",
    "order": 15,
    "full_order": 15
  },
  {
    "sosId": "OH0012670753",
    "name": "Jeffrey Powell",
    "age": "35",
    "shortAddress": "146 W 2nd St",
    "precinct": "Man6a",
    "mappableAddress": "146 W 2ND ST Mansfield OH",
    "longitude": -82.5211486,
    "latitude": 40.7578557,
    "turf": "Turf2",
    "order": 16,
    "full_order": 16
  },
  {
    "sosId": "OH0012668599",
    "name": "Louis Strubhar",
    "age": "60",
    "shortAddress": "154 W 2nd St",
    "precinct": "Man6a",
    "mappableAddress": "154 W 2ND ST Mansfield OH",
    "longitude": -82.521427,
    "latitude": 40.7578864,
    "turf": "Turf2",
    "order": 17,
    "full_order": 17
  },
  {
    "sosId": "OH0020113986",
    "name": "Jamery Jennings",
    "age": "56",
    "shortAddress": "154 W 2nd St Apt 108",
    "precinct": "Man6a",
    "mappableAddress": "154 W 2ND ST Mansfield OH",
    "longitude": -82.521427,
    "latitude": 40.7578864,
    "turf": "Turf2",
    "order": 17,
    "full_order": 17.002
  },
  {
    "sosId": "OH0012703867",
    "name": "Jill Leimeister",
    "age": "55",
    "shortAddress": "154 W 2nd St Apt 109",
    "precinct": "Man6a",
    "mappableAddress": "154 W 2ND ST Mansfield OH",
    "longitude": -82.521427,
    "latitude": 40.7578864,
    "turf": "Turf2",
    "order": 17,
    "full_order": 17.004
  },
  {
    "sosId": "OH0023103442",
    "name": "Crystal Bloomfield",
    "age": "23",
    "shortAddress": "154 W 2nd St Apt 309",
    "precinct": "Man6a",
    "mappableAddress": "154 W 2ND ST Mansfield OH",
    "longitude": -82.521427,
    "latitude": 40.7578864,
    "turf": "Turf2",
    "order": 17,
    "full_order": 17.006
  },
  {
    "sosId": "OH0023265310",
    "name": "Mark Porter",
    "age": "61",
    "shortAddress": "154 W 2nd St Apt 210",
    "precinct": "Man6a",
    "mappableAddress": "154 W 2ND ST Mansfield OH",
    "longitude": -82.521427,
    "latitude": 40.7578864,
    "turf": "Turf2",
    "order": 17,
    "full_order": 17.008
  },
  {
    "sosId": "OH0012667825",
    "name": "Myron Miller",
    "age": "53",
    "shortAddress": "156 W 2nd St",
    "precinct": "Man6a",
    "mappableAddress": "156 W 2ND ST Mansfield OH",
    "longitude": -82.5214807,
    "latitude": 40.7575723,
    "turf": "Turf2",
    "order": 18,
    "full_order": 18
  },
  {
    "sosId": "OH0024021052",
    "name": "Brenda Adams",
    "age": "60",
    "shortAddress": "156 W 2nd St",
    "precinct": "Man6a",
    "mappableAddress": "156 W 2ND ST Mansfield OH",
    "longitude": -82.5214807,
    "latitude": 40.7575723,
    "turf": "Turf2",
    "order": 18,
    "full_order": 18.001
  },
  {
    "sosId": "OH0024185639",
    "name": "Joseph Paniagua",
    "age": "61",
    "shortAddress": "156 W 2nd St Apt 106",
    "precinct": "Man6a",
    "mappableAddress": "156 W 2ND ST Mansfield OH",
    "longitude": -82.5214807,
    "latitude": 40.7575723,
    "turf": "Turf2",
    "order": 18,
    "full_order": 18.003
  },
  {
    "sosId": "OH0021484007",
    "name": "Angel Larue",
    "age": "33",
    "shortAddress": "156 W 2nd St Apt 206",
    "precinct": "Man6a",
    "mappableAddress": "156 W 2ND ST Mansfield OH",
    "longitude": -82.5214807,
    "latitude": 40.7575723,
    "turf": "Turf2",
    "order": 18,
    "full_order": 18.005
  },
  {
    "sosId": "OH0022820977",
    "name": "William Ball",
    "age": "47",
    "shortAddress": "156 W 2nd St Apt 206",
    "precinct": "Man6a",
    "mappableAddress": "156 W 2ND ST Mansfield OH",
    "longitude": -82.5214807,
    "latitude": 40.7575723,
    "turf": "Turf2",
    "order": 18,
    "full_order": 18.006
  },
  {
    "sosId": "OH0021852260",
    "name": "William Jenskins",
    "age": "32",
    "shortAddress": "156 W 2nd St Apt 306",
    "precinct": "Man6a",
    "mappableAddress": "156 W 2ND ST Mansfield OH",
    "longitude": -82.5214807,
    "latitude": 40.7575723,
    "turf": "Turf2",
    "order": 18,
    "full_order": 18.008
  },
  {
    "sosId": "OH0012697292",
    "name": "Toni Knowles",
    "age": "62",
    "shortAddress": "160 W 2nd St Apt 101",
    "precinct": "Man6a",
    "mappableAddress": "160 W 2ND ST Mansfield OH",
    "longitude": -82.5215509,
    "latitude": 40.7575747,
    "turf": "Turf2",
    "order": 19,
    "full_order": 19
  },
  {
    "sosId": "OH0012668946",
    "name": "Richard Minor",
    "age": "53",
    "shortAddress": "160 W 2nd St Apt 102",
    "precinct": "Man6a",
    "mappableAddress": "160 W 2ND ST Mansfield OH",
    "longitude": -82.5215509,
    "latitude": 40.7575747,
    "turf": "Turf2",
    "order": 19,
    "full_order": 19.002
  },
  {
    "sosId": "OH0015916044",
    "name": "Joseph Spreng",
    "age": "68",
    "shortAddress": "160 W 2nd St Apt 201",
    "precinct": "Man6a",
    "mappableAddress": "160 W 2ND ST Mansfield OH",
    "longitude": -82.5215509,
    "latitude": 40.7575747,
    "turf": "Turf2",
    "order": 19,
    "full_order": 19.004
  },
  {
    "sosId": "OH0019177024",
    "name": "Renee Jordan",
    "age": "55",
    "shortAddress": "160 W 2nd St Apt 202",
    "precinct": "Man6a",
    "mappableAddress": "160 W 2ND ST Mansfield OH",
    "longitude": -82.5215509,
    "latitude": 40.7575747,
    "turf": "Turf2",
    "order": 19,
    "full_order": 19.006
  },
  {
    "sosId": "OH0021895699",
    "name": "Ginger Cates",
    "age": "58",
    "shortAddress": "160 W 2nd St Apt 302",
    "precinct": "Man6a",
    "mappableAddress": "160 W 2ND ST Mansfield OH",
    "longitude": -82.5215509,
    "latitude": 40.7575747,
    "turf": "Turf2",
    "order": 19,
    "full_order": 19.008
  },
  {
    "sosId": "OH0022965589",
    "name": "Caleb Sarge",
    "age": "25",
    "shortAddress": "160 W 2nd St Apt 302",
    "precinct": "Man6a",
    "mappableAddress": "160 W 2ND ST Mansfield OH",
    "longitude": -82.5215509,
    "latitude": 40.7575747,
    "turf": "Turf2",
    "order": 19,
    "full_order": 19.009
  },
  {
    "sosId": "OH0012668557",
    "name": "Theresa Herlihy",
    "age": "47",
    "shortAddress": "170 W 2nd St",
    "precinct": "Man6a",
    "mappableAddress": "170 W 2ND ST Mansfield OH",
    "longitude": -82.5217079,
    "latitude": 40.7578977,
    "turf": "Turf2",
    "order": 20,
    "full_order": 20
  },
  {
    "sosId": "OH0012668690",
    "name": "Osbaldo Rodriguez",
    "age": "72",
    "shortAddress": "186 W 2nd St",
    "precinct": "Man6a",
    "mappableAddress": "186 W 2ND ST Mansfield OH",
    "longitude": -82.5225547,
    "latitude": 40.7576131,
    "turf": "Turf2",
    "order": 21,
    "full_order": 21
  },
  {
    "sosId": "OH0021624877",
    "name": "Randy Brown",
    "age": "45",
    "shortAddress": "47 Sturges Ave",
    "precinct": "Man6a",
    "mappableAddress": "47 STURGES AVE Mansfield OH",
    "longitude": -82.522595,
    "latitude": 40.7574619,
    "turf": "Turf2",
    "order": 22,
    "full_order": 22.002
  },
  {
    "sosId": "OH0023138221",
    "name": "Taylor Wittig",
    "age": "24",
    "shortAddress": "47 1/2 Sturges Ave",
    "precinct": "Man6a",
    "mappableAddress": "47 STURGES AVE Mansfield OH",
    "longitude": -82.522595,
    "latitude": 40.7574619,
    "turf": "Turf2",
    "order": 22,
    "full_order": 22.5
  },
  {
    "sosId": "OH0020294809",
    "name": "Monya Angel",
    "age": "50",
    "shortAddress": "51 1/2 Sturges Ave",
    "precinct": "Man6a",
    "mappableAddress": "51 STURGES AVE Mansfield OH",
    "longitude": -82.522875,
    "latitude": 40.7573642,
    "turf": "Turf2",
    "order": 23,
    "full_order": 23.002
  },
  {
    "sosId": "OH0012669017",
    "name": "Timothy Hillman",
    "age": "41",
    "shortAddress": "193 W 2nd St Apt 1",
    "precinct": "Man6a",
    "mappableAddress": "193 W 2ND ST Mansfield OH",
    "longitude": -82.5227296,
    "latitude": 40.7576185,
    "turf": "Turf2",
    "order": 41,
    "full_order": 24
  },
  {
    "sosId": "OH0021193376",
    "name": "Marquis Selmon",
    "age": "29",
    "shortAddress": "193 W 2nd St Apt 3",
    "precinct": "Man6a",
    "mappableAddress": "193 W 2ND ST Mansfield OH",
    "longitude": -82.5227296,
    "latitude": 40.7576185,
    "turf": "Turf2",
    "order": 41,
    "full_order": 25
  },
  {
    "sosId": "OH0012668392",
    "name": "Donald Karl",
    "age": "65",
    "shortAddress": "191 W 2nd St",
    "precinct": "Man6a",
    "mappableAddress": "191 W 2ND ST Mansfield OH",
    "longitude": -82.5226402,
    "latitude": 40.7576158,
    "turf": "Turf2",
    "order": 40,
    "full_order": 26
  },
  {
    "sosId": "OH0024187671",
    "name": "Korbin Dodrill",
    "age": "21",
    "shortAddress": "183 W 2nd St Apt 1",
    "precinct": "Man6a",
    "mappableAddress": "183 W 2ND ST Mansfield OH",
    "longitude": -82.5223026,
    "latitude": 40.7572445,
    "turf": "Turf2",
    "order": 39,
    "full_order": 27
  },
  {
    "sosId": "OH0020231758",
    "name": "Emmanuel Harris",
    "age": "38",
    "shortAddress": "177 W 2nd St",
    "precinct": "Man6a",
    "mappableAddress": "177 W 2ND ST Mansfield OH",
    "longitude": -82.5220854,
    "latitude": 40.7572367,
    "turf": "Turf2",
    "order": 38,
    "full_order": 28
  },
  {
    "sosId": "OH0023708362",
    "name": "Daryletta Wheeler",
    "age": "28",
    "shortAddress": "177 W 2nd St",
    "precinct": "Man6a",
    "mappableAddress": "177 W 2ND ST Mansfield OH",
    "longitude": -82.5220854,
    "latitude": 40.7572367,
    "turf": "Turf2",
    "order": 38,
    "full_order": 28
  },
  {
    "sosId": "OH0012668604",
    "name": "Shelly Brown",
    "age": "46",
    "shortAddress": "173 W 2nd St",
    "precinct": "Man6a",
    "mappableAddress": "173 W 2ND ST Mansfield OH",
    "longitude": -82.521902,
    "latitude": 40.7572297,
    "turf": "Turf2",
    "order": 37,
    "full_order": 29
  },
  {
    "sosId": "OH0012663985",
    "name": "Susan Zimmer",
    "age": "64",
    "shortAddress": "171 W 2nd St",
    "precinct": "Man6a",
    "mappableAddress": "171 W 2ND ST Mansfield OH",
    "longitude": -82.5218017,
    "latitude": 40.7575831,
    "turf": "Turf2",
    "order": 37,
    "full_order": 30
  },
  {
    "sosId": "OH0023235283",
    "name": "Daniel Murray",
    "age": "24",
    "shortAddress": "171 W 2nd St",
    "precinct": "Man6a",
    "mappableAddress": "171 W 2ND ST Mansfield OH",
    "longitude": -82.5218017,
    "latitude": 40.7575831,
    "turf": "Turf2",
    "order": 37,
    "full_order": 30
  },
  {
    "sosId": "OH0021629153",
    "name": "Roby Martin",
    "age": "55",
    "shortAddress": "161 W 2nd St Apt A",
    "precinct": "Man6a",
    "mappableAddress": "161 W 2ND ST Mansfield OH",
    "longitude": -82.5214814,
    "latitude": 40.7575723,
    "turf": "Turf2",
    "order": 36,
    "full_order": 31
  },
  {
    "sosId": "OH0012664564",
    "name": "Latasha Lane",
    "age": "44",
    "shortAddress": "161 W 2nd St Apt C",
    "precinct": "Man6a",
    "mappableAddress": "161 W 2ND ST Mansfield OH",
    "longitude": -82.5214814,
    "latitude": 40.7575723,
    "turf": "Turf2",
    "order": 36,
    "full_order": 32
  },
  {
    "sosId": "OH0023914040",
    "name": "Lakisha Horton",
    "age": "22",
    "shortAddress": "161 W 2nd St Apt F",
    "precinct": "Man6a",
    "mappableAddress": "161 W 2ND ST Mansfield OH",
    "longitude": -82.5214814,
    "latitude": 40.7575723,
    "turf": "Turf2",
    "order": 36,
    "full_order": 33
  },
  {
    "sosId": "OH0012669058",
    "name": "Ronald Hordge",
    "age": "60",
    "shortAddress": "155 W 2nd St Apt C",
    "precinct": "Man6a",
    "mappableAddress": "155 W 2ND ST Mansfield OH",
    "longitude": -82.5212946,
    "latitude": 40.7575661,
    "turf": "Turf2",
    "order": 35,
    "full_order": 34
  },
  {
    "sosId": "OH0021143624",
    "name": "Debbie Hordge",
    "age": "56",
    "shortAddress": "155 W 2nd St Apt C",
    "precinct": "Man6a",
    "mappableAddress": "155 W 2ND ST Mansfield OH",
    "longitude": -82.5212946,
    "latitude": 40.7575661,
    "turf": "Turf2",
    "order": 35,
    "full_order": 34
  },
  {
    "sosId": "OH0012694346",
    "name": "Lemarco Robinson",
    "age": "35",
    "shortAddress": "155 W 2nd St Apt D",
    "precinct": "Man6a",
    "mappableAddress": "155 W 2ND ST Mansfield OH",
    "longitude": -82.5212946,
    "latitude": 40.7575661,
    "turf": "Turf2",
    "order": 35,
    "full_order": 35
  },
  {
    "sosId": "OH0023145095",
    "name": "Roger Mcneely",
    "age": "56",
    "shortAddress": "155 W 2nd St Apt F",
    "precinct": "Man6a",
    "mappableAddress": "155 W 2ND ST Mansfield OH",
    "longitude": -82.5212946,
    "latitude": 40.7575661,
    "turf": "Turf2",
    "order": 35,
    "full_order": 36
  },
  {
    "sosId": "OH0024158372",
    "name": "Raccio Feagin",
    "age": "64",
    "shortAddress": "155 W 2nd St Apt F",
    "precinct": "Man6a",
    "mappableAddress": "155 W 2ND ST Mansfield OH",
    "longitude": -82.5212946,
    "latitude": 40.7575661,
    "turf": "Turf2",
    "order": 35,
    "full_order": 36
  },
  {
    "sosId": "OH0012668777",
    "name": "Russell Haywood",
    "age": "80",
    "shortAddress": "125 W 2nd St",
    "precinct": "Man6a",
    "mappableAddress": "125 W 2ND ST Mansfield OH",
    "longitude": -82.5203175,
    "latitude": 40.7571813,
    "turf": "Turf2",
    "order": 34,
    "full_order": 37
  },
  {
    "sosId": "OH0022866886",
    "name": "Patricia Rabquer",
    "age": "49",
    "shortAddress": "125 W 2nd St Apt 2",
    "precinct": "Man6a",
    "mappableAddress": "125 W 2ND ST Mansfield OH",
    "longitude": -82.5203175,
    "latitude": 40.7571813,
    "turf": "Turf2",
    "order": 34,
    "full_order": 38
  },
  {
    "sosId": "OH0022971943",
    "name": "Bernard Smith",
    "age": "69",
    "shortAddress": "125 W 2nd St Apt 3",
    "precinct": "Man6a",
    "mappableAddress": "125 W 2ND ST Mansfield OH",
    "longitude": -82.5203175,
    "latitude": 40.7571813,
    "turf": "Turf2",
    "order": 34,
    "full_order": 39
  },
  {
    "sosId": "OH0021449415",
    "name": "Marc Hess",
    "age": "61",
    "shortAddress": "125 W 2nd St Apt 4",
    "precinct": "Man6a",
    "mappableAddress": "125 W 2ND ST Mansfield OH",
    "longitude": -82.5203175,
    "latitude": 40.7571813,
    "turf": "Turf2",
    "order": 34,
    "full_order": 40
  },
  {
    "sosId": "OH0020898789",
    "name": "Nennie Lawhorn",
    "age": "49",
    "shortAddress": "125 W 2nd St Apt 8",
    "precinct": "Man6a",
    "mappableAddress": "125 W 2ND ST Mansfield OH",
    "longitude": -82.5203175,
    "latitude": 40.7571813,
    "turf": "Turf2",
    "order": 34,
    "full_order": 41
  },
  {
    "sosId": "OH0012653915",
    "name": "Julie Kilgore",
    "age": "62",
    "shortAddress": "121 W 2nd St Apt 1",
    "precinct": "Man6a",
    "mappableAddress": "121 W 2ND ST Mansfield OH",
    "longitude": -82.5201631,
    "latitude": 40.7571766,
    "turf": "Turf2",
    "order": 33,
    "full_order": 42
  },
  {
    "sosId": "OH0020744405",
    "name": "Timothy Kilgore",
    "age": "26",
    "shortAddress": "121 W 2nd St Apt 1",
    "precinct": "Man6a",
    "mappableAddress": "121 W 2ND ST Mansfield OH",
    "longitude": -82.5201631,
    "latitude": 40.7571766,
    "turf": "Turf2",
    "order": 33,
    "full_order": 42
  },
  {
    "sosId": "OH0022833156",
    "name": "Taylor Kilgore",
    "age": "24",
    "shortAddress": "121 W 2nd St Apt 1",
    "precinct": "Man6a",
    "mappableAddress": "121 W 2ND ST Mansfield OH",
    "longitude": -82.5201631,
    "latitude": 40.7571766,
    "turf": "Turf2",
    "order": 33,
    "full_order": 42
  },
  {
    "sosId": "OH0019199542",
    "name": "Erica Snyder",
    "age": "30",
    "shortAddress": "121 W 2nd St Rear",
    "precinct": "Man6a",
    "mappableAddress": "121 W 2ND ST Mansfield OH",
    "longitude": -82.5201631,
    "latitude": 40.7571766,
    "turf": "Turf2",
    "order": 33,
    "full_order": 43
  },
  {
    "sosId": "OH0012668696",
    "name": "Barbara Jackson",
    "age": "51",
    "shortAddress": "105 1/2 W 2nd St",
    "precinct": "Man6a",
    "mappableAddress": "105 W 2ND ST Mansfield OH",
    "longitude": -82.5195838,
    "latitude": 40.7571534,
    "turf": "Turf2",
    "order": 32,
    "full_order": 44
  },
  {
    "sosId": "OH0019296969",
    "name": "Brittany Jackson",
    "age": "28",
    "shortAddress": "105 W 2nd St",
    "precinct": "Man6a",
    "mappableAddress": "105 W 2ND ST Mansfield OH",
    "longitude": -82.5195838,
    "latitude": 40.7571534,
    "turf": "Turf2",
    "order": 32,
    "full_order": 45
  },
  {
    "sosId": "OH0012668533",
    "name": "Albert Britton",
    "age": "69",
    "shortAddress": "99 W 2nd St",
    "precinct": "Man6a",
    "mappableAddress": "99 W 2ND ST Mansfield OH",
    "longitude": -82.5194505,
    "latitude": 40.7572993,
    "turf": "Turf2",
    "order": 31,
    "full_order": 46
  },
  {
    "sosId": "OH0012668348",
    "name": "Mary Campbell",
    "age": "92",
    "shortAddress": "104 W 1st St",
    "precinct": "Man6a",
    "mappableAddress": "104 W 1ST ST Mansfield OH",
    "longitude": -82.5194293,
    "latitude": 40.7565697,
    "turf": "Turf2",
    "order": 30,
    "full_order": 47
  },
  {
    "sosId": "OH0012668457",
    "name": "Rosemary Bingert",
    "age": "92",
    "shortAddress": "104 W 1st St",
    "precinct": "Man6a",
    "mappableAddress": "104 W 1ST ST Mansfield OH",
    "longitude": -82.5194293,
    "latitude": 40.7565697,
    "turf": "Turf2",
    "order": 30,
    "full_order": 47
  },
  {
    "sosId": "OH0012668928",
    "name": "Tracy Shorter",
    "age": "48",
    "shortAddress": "116 1/2 W 1st St",
    "precinct": "Man6a",
    "mappableAddress": "116 W 1ST ST Mansfield OH",
    "longitude": -82.520095,
    "latitude": 40.756653,
    "turf": "Turf2",
    "order": 29,
    "full_order": 48
  },
  {
    "sosId": "OH0012668516",
    "name": "Mary Isch",
    "age": "62",
    "shortAddress": "120 W 1st St",
    "precinct": "Man6a",
    "mappableAddress": "120 W 1ST ST Mansfield OH",
    "longitude": -82.5202537,
    "latitude": 40.7564855,
    "turf": "Turf2",
    "order": 28,
    "full_order": 49
  },
  {
    "sosId": "OH0012668602",
    "name": "Robbie Scarbury",
    "age": "51",
    "shortAddress": "122 W 1st St",
    "precinct": "Man6a",
    "mappableAddress": "122 W 1ST ST Mansfield OH",
    "longitude": -82.5203121,
    "latitude": 40.756579,
    "turf": "Turf2",
    "order": 27,
    "full_order": 50
  },
  {
    "sosId": "OH0012668654",
    "name": "James Scarbury",
    "age": "59",
    "shortAddress": "122 W 1st St",
    "precinct": "Man6a",
    "mappableAddress": "122 W 1ST ST Mansfield OH",
    "longitude": -82.5203121,
    "latitude": 40.756579,
    "turf": "Turf2",
    "order": 27,
    "full_order": 50
  },
  {
    "sosId": "OH0024182504",
    "name": "Joshua Scarbury",
    "age": "22",
    "shortAddress": "122 W 1st St",
    "precinct": "Man6a",
    "mappableAddress": "122 W 1ST ST Mansfield OH",
    "longitude": -82.5203121,
    "latitude": 40.756579,
    "turf": "Turf2",
    "order": 27,
    "full_order": 50
  },
  {
    "sosId": "OH0021940643",
    "name": "Jacob Scarbury",
    "age": "24",
    "shortAddress": "122 W 1st St",
    "precinct": "Man6a",
    "mappableAddress": "122 W 1ST ST Mansfield OH",
    "longitude": -82.5203121,
    "latitude": 40.756579,
    "turf": "Turf2",
    "order": 27,
    "full_order": 50
  },
  {
    "sosId": "OH0021474321",
    "name": "Darron Mask",
    "age": "60",
    "shortAddress": "158 W 1st St",
    "precinct": "Man6a",
    "mappableAddress": "158 W 1ST ST Mansfield OH",
    "longitude": -82.521493,
    "latitude": 40.756677,
    "turf": "Turf2",
    "order": 26,
    "full_order": 51
  },
  {
    "sosId": "OH0022869395",
    "name": "Kalina Latour",
    "age": "35",
    "shortAddress": "158 1/2 W 1st St",
    "precinct": "Man6a",
    "mappableAddress": "158 W 1ST ST Mansfield OH",
    "longitude": -82.521493,
    "latitude": 40.756677,
    "turf": "Turf2",
    "order": 26,
    "full_order": 52
  },
  {
    "sosId": "OH0012668597",
    "name": "Alan Raphael",
    "age": "58",
    "shortAddress": "174 W 1st St",
    "precinct": "Man6a",
    "mappableAddress": "174 W 1ST ST Mansfield OH",
    "longitude": -82.5221563,
    "latitude": 40.7569239,
    "turf": "Turf2",
    "order": 25,
    "full_order": 53
  },
  {
    "sosId": "OH0012660222",
    "name": "Deborah Mitchell",
    "age": "64",
    "shortAddress": "178 W 1st St",
    "precinct": "Man6a",
    "mappableAddress": "178 W 1ST ST Mansfield OH",
    "longitude": -82.5222368,
    "latitude": 40.7567077,
    "turf": "Turf2",
    "order": 24,
    "full_order": 54
  },
  {
    "sosId": "OH0012668359",
    "name": "Rose Martin",
    "age": "79",
    "shortAddress": "182 W 1st St",
    "precinct": "Man6a",
    "mappableAddress": "182 W 1ST ST Mansfield OH",
    "longitude": -82.5223677,
    "latitude": 40.7566227,
    "turf": "Turf2",
    "order": 23,
    "full_order": 55
  },
  {
    "sosId": "OH0023966112",
    "name": "George Clark",
    "age": "57",
    "shortAddress": "90 Sturges Ave",
    "precinct": "Man6a",
    "mappableAddress": "90 STURGES AVE Mansfield OH",
    "longitude": -82.523345,
    "latitude": 40.756325,
    "turf": "Turf2",
    "order": 45,
    "full_order": 55.5
  },
  {
    "sosId": "OH0020188116",
    "name": "Charles Noble",
    "age": "62",
    "shortAddress": "231 W 1st St",
    "precinct": "Man6a",
    "mappableAddress": "231 W 1ST ST Mansfield OH",
    "longitude": -82.5243456,
    "latitude": 40.7564287,
    "turf": "Turf2",
    "order": 44,
    "full_order": 56
  },
  {
    "sosId": "OH0012725325",
    "name": "Holly Debolt",
    "age": "33",
    "shortAddress": "82 Sturges Ave",
    "precinct": "Man6a",
    "mappableAddress": "82 STURGES AVE Mansfield OH",
    "longitude": -82.5237205,
    "latitude": 40.7565924,
    "turf": "Turf2",
    "order": 43,
    "full_order": 57
  },
  {
    "sosId": "OH0012668707",
    "name": "Sally Collins",
    "age": "44",
    "shortAddress": "58 Sturges Ave Apt 2",
    "precinct": "Man6a",
    "mappableAddress": "58 STURGES AVE Mansfield OH",
    "longitude": -82.5240376,
    "latitude": 40.7572231,
    "turf": "Turf2",
    "order": 42.5,
    "full_order": 58
  },
  {
    "sosId": "OH0021334078",
    "name": "Carolyn Adams",
    "age": "76",
    "shortAddress": "58 Sturges Ave Apt 3 Rear",
    "precinct": "Man6a",
    "mappableAddress": "58 STURGES AVE Mansfield OH",
    "longitude": -82.5240376,
    "latitude": 40.7572231,
    "turf": "Turf2",
    "order": 42.5,
    "full_order": 59
  },
  {
    "sosId": "OH0012703847",
    "name": "Ed Davis",
    "age": "53",
    "shortAddress": "58 Sturges Ave Apt 5",
    "precinct": "Man6a",
    "mappableAddress": "58 STURGES AVE Mansfield OH",
    "longitude": -82.5240376,
    "latitude": 40.7572231,
    "turf": "Turf2",
    "order": 42.5,
    "full_order": 60
  },
  {
    "sosId": "OH0012699722",
    "name": "John Horner",
    "age": "63",
    "shortAddress": "34 Sturges Ave",
    "precinct": "Man6a",
    "mappableAddress": "34 STURGES AVE Mansfield OH",
    "longitude": -82.5236148,
    "latitude": 40.7579042,
    "turf": "Turf2",
    "order": 42,
    "full_order": 61
  },
  {
    "sosId": "OH0012723456",
    "name": "Anica Horner",
    "age": "59",
    "shortAddress": "34 Sturges Ave",
    "precinct": "Man6a",
    "mappableAddress": "34 STURGES AVE Mansfield OH",
    "longitude": -82.5236148,
    "latitude": 40.7579042,
    "turf": "Turf2",
    "order": 42,
    "full_order": 61
  }
]