[
  {
    "turf": "Turf6",
    "precinct": "Man6a",
    "SOS_VOTERID": "OH0023234532",
    "name": "Donald Mash",
    "age": "29",
    "shortAddress": "180 Park Ave E",
    "mappableAddress": "180 PARK AVE E Mansfield OH",
    "latitude": "40.757935",
    "longitude": "-82.509127",
    "order": "0.5",
    "full_order": "0.5"
  },
  {
    "turf": "Turf6",
    "precinct": "Man6a",
    "SOS_VOTERID": "OH0024236929",
    "name": "Sheri Keen",
    "age": "40",
    "shortAddress": "180 Park Ave E",
    "mappableAddress": "180 PARK AVE E Mansfield OH",
    "latitude": "40.757935",
    "longitude": "-82.509127",
    "order": "0.5",
    "full_order": "0.501"
  },
  {
    "turf": "Turf6",
    "precinct": "Man6a",
    "SOS_VOTERID": "OH0012704395",
    "name": "Gwen Clemons",
    "age": "57",
    "shortAddress": "200 Park Ave E",
    "mappableAddress": "200 PARK AVE E Mansfield OH",
    "latitude": "40.7580331",
    "longitude": "-82.5083301",
    "order": "1",
    "full_order": "1"
  },
  {
    "turf": "Turf6",
    "precinct": "Man6a",
    "SOS_VOTERID": "OH0016417725",
    "name": "Douglas Jackson",
    "age": "31",
    "shortAddress": "200 Park Ave E",
    "mappableAddress": "200 PARK AVE E Mansfield OH",
    "latitude": "40.7580331",
    "longitude": "-82.5083301",
    "order": "1",
    "full_order": "1.001"
  },
  {
    "turf": "Turf6",
    "precinct": "Man6a",
    "SOS_VOTERID": "OH0012704293",
    "name": "Larry Clemons",
    "age": "60",
    "shortAddress": "202 Park Ave E",
    "mappableAddress": "202 PARK AVE E Mansfield OH",
    "latitude": "40.7582465",
    "longitude": "-82.5082751",
    "order": "2",
    "full_order": "2"
  },
  {
    "turf": "Turf6",
    "precinct": "Man6a",
    "SOS_VOTERID": "OH0016417184",
    "name": "Roderick Johnson",
    "age": "31",
    "shortAddress": "202 Park Ave E",
    "mappableAddress": "202 PARK AVE E Mansfield OH",
    "latitude": "40.7582465",
    "longitude": "-82.5082751",
    "order": "2",
    "full_order": "2.001"
  },
  {
    "turf": "Turf6",
    "precinct": "Man6a",
    "SOS_VOTERID": "OH0022109835",
    "name": "Phillip Clemons",
    "age": "23",
    "shortAddress": "202 Park Ave E",
    "mappableAddress": "202 PARK AVE E Mansfield OH",
    "latitude": "40.7582465",
    "longitude": "-82.5082751",
    "order": "2",
    "full_order": "2.002"
  },
  {
    "turf": "Turf6",
    "precinct": "Man6a",
    "SOS_VOTERID": "OH0021448990",
    "name": "Jacques Cowan",
    "age": "25",
    "shortAddress": "14 S Foster St",
    "mappableAddress": "14 S FOSTER ST Mansfield OH",
    "latitude": "40.7577603",
    "longitude": "-82.5083724",
    "order": "3",
    "full_order": "3"
  },
  {
    "turf": "Turf6",
    "precinct": "Man6a",
    "SOS_VOTERID": "OH0022726547",
    "name": "Holly Doss",
    "age": "23",
    "shortAddress": "14 S Foster St",
    "mappableAddress": "14 S FOSTER ST Mansfield OH",
    "latitude": "40.7577603",
    "longitude": "-82.5083724",
    "order": "3",
    "full_order": "3.001"
  },
  {
    "turf": "Turf6",
    "precinct": "Man6a",
    "SOS_VOTERID": "OH0012704174",
    "name": "Shirley English",
    "age": "63",
    "shortAddress": "16 S Foster St",
    "mappableAddress": "16 S FOSTER ST Mansfield OH",
    "latitude": "40.7576816",
    "longitude": "-82.5083724",
    "order": "4",
    "full_order": "4"
  },
  {
    "turf": "Turf6",
    "precinct": "Man6a",
    "SOS_VOTERID": "OH0012703765",
    "name": "John Tasker",
    "age": "48",
    "shortAddress": "24 S Foster St",
    "mappableAddress": "24 S FOSTER ST Mansfield OH",
    "latitude": "40.7574088",
    "longitude": "-82.5084147",
    "order": "5",
    "full_order": "5"
  },
  {
    "turf": "Turf6",
    "precinct": "Man6a",
    "SOS_VOTERID": "OH0012667779",
    "name": "Betsey Willis",
    "age": "59",
    "shortAddress": "201 E 2nd St",
    "mappableAddress": "201 E 2ND ST Mansfield OH",
    "latitude": "40.7572092",
    "longitude": "-82.5083724",
    "order": "6",
    "full_order": "6"
  },
  {
    "turf": "Turf6",
    "precinct": "Man6a",
    "SOS_VOTERID": "OH0018874704",
    "name": "Tamika Moore",
    "age": "40",
    "shortAddress": "181 E 2nd St",
    "mappableAddress": "181 E 2ND ST Mansfield OH",
    "latitude": "40.7572395",
    "longitude": "-82.5088376",
    "order": "7",
    "full_order": "7"
  },
  {
    "turf": "Turf6",
    "precinct": "Man6a",
    "SOS_VOTERID": "OH0021624893",
    "name": "Jatavia Brewer",
    "age": "26",
    "shortAddress": "181 E 2nd St",
    "mappableAddress": "181 E 2ND ST Mansfield OH",
    "latitude": "40.7572395",
    "longitude": "-82.5088376",
    "order": "7",
    "full_order": "7.001"
  },
  {
    "turf": "Turf6",
    "precinct": "Man6a",
    "SOS_VOTERID": "OH0021788893",
    "name": "Jason Brown",
    "age": "39",
    "shortAddress": "181 E 2nd St",
    "mappableAddress": "181 E 2ND ST Mansfield OH",
    "latitude": "40.7572395",
    "longitude": "-82.5088376",
    "order": "7",
    "full_order": "7.002"
  },
  {
    "turf": "Turf6",
    "precinct": "Man6a",
    "SOS_VOTERID": "OH0021773325",
    "name": "Arlonda Hayes",
    "age": "39",
    "shortAddress": "179 E 2nd St",
    "mappableAddress": "179 E 2ND ST Mansfield OH",
    "latitude": "40.7572084",
    "longitude": "-82.5089644",
    "order": "8",
    "full_order": "8"
  },
  {
    "turf": "Turf6",
    "precinct": "Man6a",
    "SOS_VOTERID": "OH0021477219",
    "name": "David Williams",
    "age": "56",
    "shortAddress": "154 E Luther Pl",
    "mappableAddress": "154 E LUTHER PL Mansfield OH",
    "latitude": "40.7576341",
    "longitude": "-82.5100638",
    "order": "9",
    "full_order": "9"
  },
  {
    "turf": "Turf6",
    "precinct": "Man6a",
    "SOS_VOTERID": "OH0012704100",
    "name": "Thomas Mathews",
    "age": "73",
    "shortAddress": "129 E 2nd St",
    "mappableAddress": "129 E 2ND ST Mansfield OH",
    "latitude": "40.7573348",
    "longitude": "-82.5109095",
    "order": "10",
    "full_order": "10"
  },
  {
    "turf": "Turf6",
    "precinct": "Man6a",
    "SOS_VOTERID": "OH0021406484",
    "name": "Alexis Quinones",
    "age": "37",
    "shortAddress": "142 E 2nd St",
    "mappableAddress": "142 E 2ND ST Mansfield OH",
    "latitude": "40.756795",
    "longitude": "-82.510552",
    "order": "10.5",
    "full_order": "10.5"
  },
  {
    "turf": "Turf6",
    "precinct": "Man6a",
    "SOS_VOTERID": "OH0022674972",
    "name": "Chekiah Washington",
    "age": "42",
    "shortAddress": "154 E 2nd St",
    "mappableAddress": "154 E 2ND ST Mansfield OH",
    "latitude": "40.7569883",
    "longitude": "-82.5099687",
    "order": "11",
    "full_order": "11"
  },
  {
    "turf": "Turf6",
    "precinct": "Man6a",
    "SOS_VOTERID": "OH0012703655",
    "name": "Carlie Mahaffey",
    "age": "218",
    "shortAddress": "184 E 2nd St",
    "mappableAddress": "184 E 2ND ST Mansfield OH",
    "latitude": "40.7568458",
    "longitude": "-82.5089508",
    "order": "12",
    "full_order": "12"
  },
  {
    "turf": "Turf6",
    "precinct": "Man6a",
    "SOS_VOTERID": "OH0012669592",
    "name": "Archie Jones",
    "age": "49",
    "shortAddress": "200 E 2nd St",
    "mappableAddress": "200 E 2ND ST Mansfield OH",
    "latitude": "40.7568577",
    "longitude": "-82.5084147",
    "order": "13",
    "full_order": "13"
  },
  {
    "turf": "Turf6",
    "precinct": "Man6a",
    "SOS_VOTERID": "OH0012668931",
    "name": "Blair Rankin",
    "age": "37",
    "shortAddress": "54 S Foster St",
    "mappableAddress": "54 S FOSTER ST Mansfield OH",
    "latitude": "40.7567159",
    "longitude": "-82.5085025",
    "order": "14",
    "full_order": "14"
  },
  {
    "turf": "Turf6",
    "precinct": "Man6a",
    "SOS_VOTERID": "OH0023234298",
    "name": "Alyssa Coleman",
    "age": "20",
    "shortAddress": "54 S Foster St",
    "mappableAddress": "54 S FOSTER ST Mansfield OH",
    "latitude": "40.7567159",
    "longitude": "-82.5085025",
    "order": "14",
    "full_order": "14.001"
  },
  {
    "turf": "Turf6",
    "precinct": "Man6a",
    "SOS_VOTERID": "OH0022639190",
    "name": "Dontez Wagner",
    "age": "26",
    "shortAddress": "74 S Foster St",
    "mappableAddress": "74 S FOSTER ST Mansfield OH",
    "latitude": "40.7561913",
    "longitude": "-82.508457",
    "order": "15",
    "full_order": "15"
  },
  {
    "turf": "Turf6",
    "precinct": "Man6a",
    "SOS_VOTERID": "OH0012703696",
    "name": "Carrie Davis",
    "age": "81",
    "shortAddress": "207 E 1st St",
    "mappableAddress": "207 E 1st ST Mansfield OH",
    "latitude": "40.7559945",
    "longitude": "-82.508457",
    "order": "16",
    "full_order": "16"
  },
  {
    "turf": "Turf6",
    "precinct": "Man6a",
    "SOS_VOTERID": "OH0019606341",
    "name": "Bobby Hines",
    "age": "27",
    "shortAddress": "207 E 1st St",
    "mappableAddress": "207 E 1st ST Mansfield OH",
    "latitude": "40.7559945",
    "longitude": "-82.508457",
    "order": "16",
    "full_order": "16.001"
  },
  {
    "turf": "Turf6",
    "precinct": "Man6a",
    "SOS_VOTERID": "OH0019879277",
    "name": "Charles Adkins Davis",
    "age": "29",
    "shortAddress": "207 E 1st St",
    "mappableAddress": "207 E 1st ST Mansfield OH",
    "latitude": "40.7559945",
    "longitude": "-82.508457",
    "order": "16",
    "full_order": "16.002"
  },
  {
    "turf": "Turf6",
    "precinct": "Man6a",
    "SOS_VOTERID": "OH0018527989",
    "name": "Charles Davis",
    "age": "53",
    "shortAddress": "194 E 1st St",
    "mappableAddress": "194 E 1st ST Mansfield OH",
    "latitude": "40.7556338",
    "longitude": "-82.5089644",
    "order": "16.5",
    "full_order": "16.5"
  },
  {
    "turf": "Turf6",
    "precinct": "Man6a",
    "SOS_VOTERID": "OH0012703973",
    "name": "Ruth Lykins",
    "age": "45",
    "shortAddress": "90 S Foster St",
    "mappableAddress": "90 S FOSTER ST Mansfield OH",
    "latitude": "40.755706",
    "longitude": "-82.508564",
    "order": "17",
    "full_order": "17"
  },
  {
    "turf": "Turf6",
    "precinct": "Man6a",
    "SOS_VOTERID": "OH0012703773",
    "name": "Ahmad Rashad",
    "age": "70",
    "shortAddress": "102 S Foster St",
    "mappableAddress": "102 S FOSTER ST Mansfield OH",
    "latitude": "40.7553702",
    "longitude": "-82.5085416",
    "order": "18",
    "full_order": "18"
  },
  {
    "turf": "Turf6",
    "precinct": "Man6a",
    "SOS_VOTERID": "OH0012677978",
    "name": "Jamie Fry",
    "age": "40",
    "shortAddress": "106 S Foster St",
    "mappableAddress": "106 S FOSTER ST Mansfield OH",
    "latitude": "40.7552155",
    "longitude": "-82.5085838",
    "order": "19",
    "full_order": "19"
  },
  {
    "turf": "Turf6",
    "precinct": "Man6a",
    "SOS_VOTERID": "OH0012689321",
    "name": "John Fry",
    "age": "51",
    "shortAddress": "106 S Foster St",
    "mappableAddress": "106 S FOSTER ST Mansfield OH",
    "latitude": "40.7552155",
    "longitude": "-82.5085838",
    "order": "19",
    "full_order": "19.001"
  },
  {
    "turf": "Turf6",
    "precinct": "Man6a",
    "SOS_VOTERID": "OH0012667660",
    "name": "Charles Mitchell",
    "age": "65",
    "shortAddress": "110 S Foster St",
    "mappableAddress": "110 S FOSTER ST Mansfield OH",
    "latitude": "40.7550974",
    "longitude": "-82.5085838",
    "order": "20",
    "full_order": "20"
  },
  {
    "turf": "Turf6",
    "precinct": "Man6a",
    "SOS_VOTERID": "OH0012703767",
    "name": "Howard Eubanks",
    "age": "63",
    "shortAddress": "114 S Foster St",
    "mappableAddress": "114 S FOSTER ST Mansfield OH",
    "latitude": "40.7550159",
    "longitude": "-82.5085416",
    "order": "21",
    "full_order": "21"
  },
  {
    "turf": "Turf6",
    "precinct": "Man6a",
    "SOS_VOTERID": "OH0018582997",
    "name": "Simarrah Jackson",
    "age": "30",
    "shortAddress": "118 S Foster St",
    "mappableAddress": "118 S FOSTER ST Mansfield OH",
    "latitude": "40.7549033",
    "longitude": "-82.5086261",
    "order": "22",
    "full_order": "22"
  },
  {
    "turf": "Turf6",
    "precinct": "Man6a",
    "SOS_VOTERID": "OH0023234376",
    "name": "Foster Nall",
    "age": "27",
    "shortAddress": "118 S Foster St",
    "mappableAddress": "118 S FOSTER ST Mansfield OH",
    "latitude": "40.7549033",
    "longitude": "-82.5086261",
    "order": "22",
    "full_order": "22.001"
  },
  {
    "turf": "Turf6",
    "precinct": "Man6a",
    "SOS_VOTERID": "OH0023155846",
    "name": "Davida Brent",
    "age": "34",
    "shortAddress": "120 S Foster St",
    "mappableAddress": "120 S FOSTER ST Mansfield OH",
    "latitude": "40.7547458",
    "longitude": "-82.5086261",
    "order": "23",
    "full_order": "23"
  },
  {
    "turf": "Turf6",
    "precinct": "Man6a",
    "SOS_VOTERID": "OH0012665577",
    "name": "Kisha Harvey",
    "age": "39",
    "shortAddress": "128 S Foster St",
    "mappableAddress": "128 S FOSTER ST Mansfield OH",
    "latitude": "40.7546278",
    "longitude": "-82.5086261",
    "order": "24",
    "full_order": "24"
  },
  {
    "turf": "Turf6",
    "precinct": "Man6a",
    "SOS_VOTERID": "OH0012665670",
    "name": "Davin Harvey",
    "age": "40",
    "shortAddress": "128 S Foster St",
    "mappableAddress": "128 S FOSTER ST Mansfield OH",
    "latitude": "40.7546278",
    "longitude": "-82.5086261",
    "order": "24",
    "full_order": "24.001"
  },
  {
    "turf": "Turf6",
    "precinct": "Man6a",
    "SOS_VOTERID": "OH0023103556",
    "name": "Destiny Harvey",
    "age": "21",
    "shortAddress": "128 S Foster St",
    "mappableAddress": "128 S FOSTER ST Mansfield OH",
    "latitude": "40.7546278",
    "longitude": "-82.5086261",
    "order": "24",
    "full_order": "24.002"
  },
  {
    "turf": "Turf6",
    "precinct": "Man6a",
    "SOS_VOTERID": "OH0023155942",
    "name": "Gregory Longood",
    "age": "41",
    "shortAddress": "128 S Foster St",
    "mappableAddress": "128 S FOSTER ST Mansfield OH",
    "latitude": "40.7546278",
    "longitude": "-82.5086261",
    "order": "24",
    "full_order": "24.003"
  },
  {
    "turf": "Turf6",
    "precinct": "Man6a",
    "SOS_VOTERID": "OH0012703953",
    "name": "Maggie Melton",
    "age": "73",
    "shortAddress": "134 S Foster St",
    "mappableAddress": "134 S FOSTER ST Mansfield OH",
    "latitude": "40.7545097",
    "longitude": "-82.5086261",
    "order": "25",
    "full_order": "25"
  },
  {
    "turf": "Turf6",
    "precinct": "Man6a",
    "SOS_VOTERID": "OH0012703627",
    "name": "Odessa Oneal",
    "age": "81",
    "shortAddress": "207 E Arch St",
    "mappableAddress": "207 E ARCH ST Mansfield OH",
    "latitude": "40.7542286",
    "longitude": "-82.5085416",
    "order": "26",
    "full_order": "26"
  },
  {
    "turf": "Turf6",
    "precinct": "Man6a",
    "SOS_VOTERID": "OH0020181498",
    "name": "Jason Oneal",
    "age": "36",
    "shortAddress": "207 E Arch St",
    "mappableAddress": "207 E ARCH ST Mansfield OH",
    "latitude": "40.7542286",
    "longitude": "-82.5085416",
    "order": "26",
    "full_order": "26.001"
  },
  {
    "turf": "Turf6",
    "precinct": "Man6a",
    "SOS_VOTERID": "OH0020974907",
    "name": "Jamarkus Oneal",
    "age": "26",
    "shortAddress": "207 E Arch St",
    "mappableAddress": "207 E ARCH ST Mansfield OH",
    "latitude": "40.7542286",
    "longitude": "-82.5085416",
    "order": "26",
    "full_order": "26.002"
  },
  {
    "turf": "Turf6",
    "precinct": "Man6a",
    "SOS_VOTERID": "OH0012704220",
    "name": "Tarry Taylor",
    "age": "36",
    "shortAddress": "201 E Arch St",
    "mappableAddress": "201 E ARCH ST Mansfield OH",
    "latitude": "40.7542424",
    "longitude": "-82.508753",
    "order": "27",
    "full_order": "27"
  },
  {
    "turf": "Turf6",
    "precinct": "Man6a",
    "SOS_VOTERID": "OH0012673201",
    "name": "Kevin Danals",
    "age": "35",
    "shortAddress": "197 E Arch St",
    "mappableAddress": "197 E ARCH ST Mansfield OH",
    "latitude": "40.7542506",
    "longitude": "-82.5088798",
    "order": "28",
    "full_order": "28"
  },
  {
    "turf": "Turf6",
    "precinct": "Man6a",
    "SOS_VOTERID": "OH0023247849",
    "name": "Josh Ball",
    "age": "37",
    "shortAddress": "197 E Arch St",
    "mappableAddress": "197 E ARCH ST Mansfield OH",
    "latitude": "40.7542506",
    "longitude": "-82.5088798",
    "order": "28",
    "full_order": "28.001"
  },
  {
    "turf": "Turf6",
    "precinct": "Man6a",
    "SOS_VOTERID": "OH0019637909",
    "name": "Darrell Rinehart",
    "age": "58",
    "shortAddress": "191 E Arch St",
    "mappableAddress": "191 E ARCH ST Mansfield OH",
    "latitude": "40.754317",
    "longitude": "-82.509025",
    "order": "29",
    "full_order": "29"
  },
  {
    "turf": "Turf6",
    "precinct": "Man6a",
    "SOS_VOTERID": "OH0012666231",
    "name": "Jacqueline Beard",
    "age": "49",
    "shortAddress": "137 Hedges St",
    "mappableAddress": "137 HEDGES ST Mansfield OH",
    "latitude": "40.7544603",
    "longitude": "-82.5096833",
    "order": "30",
    "full_order": "30"
  },
  {
    "turf": "Turf6",
    "precinct": "Man6a",
    "SOS_VOTERID": "OH0012703683",
    "name": "Wayne Lindsay",
    "age": "69",
    "shortAddress": "137 Hedges St",
    "mappableAddress": "137 HEDGES ST Mansfield OH",
    "latitude": "40.7544603",
    "longitude": "-82.5096833",
    "order": "30",
    "full_order": "30.001"
  },
  {
    "turf": "Turf6",
    "precinct": "Man6a",
    "SOS_VOTERID": "OH0012703462",
    "name": "Stephen Lozier",
    "age": "36",
    "shortAddress": "135 Hedges St",
    "mappableAddress": "135 HEDGES ST Mansfield OH",
    "latitude": "40.7545784",
    "longitude": "-82.5096833",
    "order": "31",
    "full_order": "31"
  },
  {
    "turf": "Turf6",
    "precinct": "Man6a",
    "SOS_VOTERID": "OH0021152701",
    "name": "Chelsea Lozier",
    "age": "26",
    "shortAddress": "135 Hedges St",
    "mappableAddress": "135 HEDGES ST Mansfield OH",
    "latitude": "40.7545784",
    "longitude": "-82.5096833",
    "order": "31",
    "full_order": "31.001"
  },
  {
    "turf": "Turf6",
    "precinct": "Man6a",
    "SOS_VOTERID": "OH0012667686",
    "name": "James Powell",
    "age": "60",
    "shortAddress": "125 Hedges St",
    "mappableAddress": "125 HEDGES ST Mansfield OH",
    "latitude": "40.7547725",
    "longitude": "-82.509641",
    "order": "32",
    "full_order": "32"
  },
  {
    "turf": "Turf6",
    "precinct": "Man6a",
    "SOS_VOTERID": "OH0024187673",
    "name": "Alfred Reese",
    "age": "35",
    "shortAddress": "119 Hedges St",
    "mappableAddress": "119 HEDGES ST Mansfield OH",
    "latitude": "40.7549299",
    "longitude": "-82.509641",
    "order": "33",
    "full_order": "33"
  },
  {
    "turf": "Turf6",
    "precinct": "Man6a",
    "SOS_VOTERID": "OH0021880478",
    "name": "Marcee Nettles",
    "age": "25",
    "shortAddress": "119 Hedges St",
    "mappableAddress": "119 HEDGES ST Mansfield OH",
    "latitude": "40.7549299",
    "longitude": "-82.509641",
    "order": "33",
    "full_order": "33.001"
  },
  {
    "turf": "Turf6",
    "precinct": "Man6a",
    "SOS_VOTERID": "OH0023155872",
    "name": "Janoll Minard",
    "age": "26",
    "shortAddress": "119 Hedges St",
    "mappableAddress": "119 HEDGES ST Mansfield OH",
    "latitude": "40.7549299",
    "longitude": "-82.509641",
    "order": "33",
    "full_order": "33.002"
  },
  {
    "turf": "Turf6",
    "precinct": "Man6a",
    "SOS_VOTERID": "OH0012662757",
    "name": "Antonia Williams",
    "age": "32",
    "shortAddress": "107 Hedges St",
    "mappableAddress": "107 HEDGES ST Mansfield OH",
    "latitude": "40.7552815",
    "longitude": "-82.5095987",
    "order": "35",
    "full_order": "35"
  },
  {
    "turf": "Turf6",
    "precinct": "Man6a",
    "SOS_VOTERID": "OH0012701416",
    "name": "Charles Williams",
    "age": "32",
    "shortAddress": "107 Hedges St",
    "mappableAddress": "107 HEDGES ST Mansfield OH",
    "latitude": "40.7552815",
    "longitude": "-82.5095987",
    "order": "35",
    "full_order": "35.001"
  },
  {
    "turf": "Turf6",
    "precinct": "Man6a",
    "SOS_VOTERID": "OH0021193146",
    "name": "Andrew Dyke",
    "age": "39",
    "shortAddress": "107 Hedges St",
    "mappableAddress": "107 HEDGES ST Mansfield OH",
    "latitude": "40.7552815",
    "longitude": "-82.5095987",
    "order": "35",
    "full_order": "35.002"
  },
  {
    "turf": "Turf6",
    "precinct": "Man6a",
    "SOS_VOTERID": "OH0018986520",
    "name": "Karlan Thompson",
    "age": "29",
    "shortAddress": "101 Hedges St",
    "mappableAddress": "101 HEDGES ST Mansfield OH",
    "latitude": "40.7554023",
    "longitude": "-82.509641",
    "order": "36",
    "full_order": "36"
  },
  {
    "turf": "Turf6",
    "precinct": "Man6a",
    "SOS_VOTERID": "OH0012704222",
    "name": "Derrick Boyd",
    "age": "32",
    "shortAddress": "97 Hedges St",
    "mappableAddress": "97 HEDGES ST Mansfield OH",
    "latitude": "40.755481",
    "longitude": "-82.509641",
    "order": "37",
    "full_order": "37"
  },
  {
    "turf": "Turf6",
    "precinct": "Man6a",
    "SOS_VOTERID": "OH0019054204",
    "name": "Joey Williams",
    "age": "34",
    "shortAddress": "97 Hedges St",
    "mappableAddress": "97 HEDGES ST Mansfield OH",
    "latitude": "40.755481",
    "longitude": "-82.509641",
    "order": "37",
    "full_order": "37.001"
  },
  {
    "turf": "Turf6",
    "precinct": "Man6a",
    "SOS_VOTERID": "OH0020180859",
    "name": "Amanda Williams",
    "age": "40",
    "shortAddress": "97 Hedges St",
    "mappableAddress": "97 HEDGES ST Mansfield OH",
    "latitude": "40.755481",
    "longitude": "-82.509641",
    "order": "37",
    "full_order": "37.002"
  },
  {
    "turf": "Turf6",
    "precinct": "Man6a",
    "SOS_VOTERID": "OH0012700563",
    "name": "Donna Comella",
    "age": "62",
    "shortAddress": "102 Hedges St",
    "mappableAddress": "102 HEDGES ST Mansfield OH",
    "latitude": "40.7553932",
    "longitude": "-82.5101061",
    "order": "38",
    "full_order": "38"
  },
  {
    "turf": "Turf6",
    "precinct": "Man6a",
    "SOS_VOTERID": "OH0012694977",
    "name": "Melissa Hatten",
    "age": "42",
    "shortAddress": "106 Hedges St",
    "mappableAddress": "106 HEDGES ST Mansfield OH",
    "latitude": "40.7552806",
    "longitude": "-82.5101907",
    "order": "39",
    "full_order": "39"
  },
  {
    "turf": "Turf6",
    "precinct": "Man6a",
    "SOS_VOTERID": "OH0023140390",
    "name": "Brian Lunsford",
    "age": "52",
    "shortAddress": "106 Hedges St",
    "mappableAddress": "106 HEDGES ST Mansfield OH",
    "latitude": "40.7552806",
    "longitude": "-82.5101907",
    "order": "39",
    "full_order": "39.001"
  },
  {
    "turf": "Turf6",
    "precinct": "Man6a",
    "SOS_VOTERID": "OH0021372382",
    "name": "Kimberly Mckenzie",
    "age": "43",
    "shortAddress": "114 Hedges St",
    "mappableAddress": "114 HEDGES ST Mansfield OH",
    "latitude": "40.755081",
    "longitude": "-82.5101484",
    "order": "40",
    "full_order": "40"
  },
  {
    "turf": "Turf6",
    "precinct": "Man6a",
    "SOS_VOTERID": "OH0021997917",
    "name": "Randall Misner",
    "age": "32",
    "shortAddress": "114 Hedges St",
    "mappableAddress": "114 HEDGES ST Mansfield OH",
    "latitude": "40.755081",
    "longitude": "-82.5101484",
    "order": "40",
    "full_order": "40.001"
  },
  {
    "turf": "Turf6",
    "precinct": "Man6a",
    "SOS_VOTERID": "OH0023393921",
    "name": "Lisa Sewell",
    "age": "52",
    "shortAddress": "114 Hedges St",
    "mappableAddress": "114 HEDGES ST Mansfield OH",
    "latitude": "40.755081",
    "longitude": "-82.5101484",
    "order": "40",
    "full_order": "40.002"
  },
  {
    "turf": "Turf6",
    "precinct": "Man6a",
    "SOS_VOTERID": "OH0023667798",
    "name": "W J Wortham",
    "age": "57",
    "shortAddress": "132 Hedges St",
    "mappableAddress": "132 HEDGES ST Mansfield OH",
    "latitude": "40.7546086",
    "longitude": "-82.5101484",
    "order": "41",
    "full_order": "41"
  },
  {
    "turf": "Turf6",
    "precinct": "Man6a",
    "SOS_VOTERID": "OH0012701307",
    "name": "Lisa Cole",
    "age": "34",
    "shortAddress": "136 Hedges St",
    "mappableAddress": "136 HEDGES ST Mansfield OH",
    "latitude": "40.7544933",
    "longitude": "-82.5101907",
    "order": "41",
    "full_order": "41.002"
  },
  {
    "turf": "Turf6",
    "precinct": "Man6a",
    "SOS_VOTERID": "OH0012703737",
    "name": "Hubert Bruce",
    "age": "63",
    "shortAddress": "135 E Arch St",
    "mappableAddress": "135 E ARCH ST Mansfield OH",
    "latitude": "40.754373",
    "longitude": "-82.510945",
    "order": "42",
    "full_order": "42"
  },
  {
    "turf": "Turf6",
    "precinct": "Man6a",
    "SOS_VOTERID": "OH0012668943",
    "name": "Sandra Strouse",
    "age": "48",
    "shortAddress": "131 S Willis Ave",
    "mappableAddress": "131 S WILLIS AVE Mansfield OH",
    "latitude": "40.7546664",
    "longitude": "-82.5110364",
    "order": "43",
    "full_order": "43"
  },
  {
    "turf": "Turf6",
    "precinct": "Man6a",
    "SOS_VOTERID": "OH0020138511",
    "name": "John Rock",
    "age": "57",
    "shortAddress": "131 S Willis Ave",
    "mappableAddress": "131 S WILLIS AVE Mansfield OH",
    "latitude": "40.7546664",
    "longitude": "-82.5110364",
    "order": "43",
    "full_order": "43.001"
  },
  {
    "turf": "Turf6",
    "precinct": "Man6a",
    "SOS_VOTERID": "OH0016344607",
    "name": "John West",
    "age": "71",
    "shortAddress": "127 S Willis Ave",
    "mappableAddress": "127 S WILLIS AVE Mansfield OH",
    "latitude": "40.7547556",
    "longitude": "-82.511047",
    "order": "44",
    "full_order": "44"
  },
  {
    "turf": "Turf6",
    "precinct": "Man6a",
    "SOS_VOTERID": "OH0021040067",
    "name": "Tonya Becker",
    "age": "43",
    "shortAddress": "127 S Willis Ave",
    "mappableAddress": "127 S WILLIS AVE Mansfield OH",
    "latitude": "40.7547556",
    "longitude": "-82.511047",
    "order": "44",
    "full_order": "44.001"
  },
  {
    "turf": "Turf6",
    "precinct": "Man6a",
    "SOS_VOTERID": "OH0024210688",
    "name": "Holly Slimak Denney",
    "age": "46",
    "shortAddress": "121 S Willis Ave",
    "mappableAddress": "121 S WILLIS AVE Mansfield OH",
    "latitude": "40.7549721",
    "longitude": "-82.511047",
    "order": "45",
    "full_order": "45"
  },
  {
    "turf": "Turf6",
    "precinct": "Man6a",
    "SOS_VOTERID": "OH0012703992",
    "name": "Raymond Mercker",
    "age": "48",
    "shortAddress": "145 E 1st St",
    "mappableAddress": "145 E 1st ST Mansfield OH",
    "latitude": "40.7560879",
    "longitude": "-82.5108012",
    "order": "46",
    "full_order": "46"
  },
  {
    "turf": "Turf6",
    "precinct": "Man6a",
    "SOS_VOTERID": "OH0012669257",
    "name": "Rickie Brooks",
    "age": "63",
    "shortAddress": "144 E 1st St",
    "mappableAddress": "144 E 1st ST Mansfield OH",
    "latitude": "40.7557493",
    "longitude": "-82.5107404",
    "order": "47",
    "full_order": "47"
  },
  {
    "turf": "Turf6",
    "precinct": "Man6a",
    "SOS_VOTERID": "OH0021266475",
    "name": "Chelsey Edwards",
    "age": "25",
    "shortAddress": "144 E 1st St",
    "mappableAddress": "144 E 1st ST Mansfield OH",
    "latitude": "40.7557493",
    "longitude": "-82.5107404",
    "order": "47",
    "full_order": "47.001"
  },
  {
    "turf": "Turf6",
    "precinct": "Man6a",
    "SOS_VOTERID": "OH0023245718",
    "name": "Michelle Edwards",
    "age": "21",
    "shortAddress": "144 E 1st St",
    "mappableAddress": "144 E 1st ST Mansfield OH",
    "latitude": "40.7557493",
    "longitude": "-82.5107404",
    "order": "47",
    "full_order": "47.002"
  },
  {
    "turf": "Turf6",
    "precinct": "Man6a",
    "SOS_VOTERID": "OH0024315344",
    "name": "Thomas Presser",
    "age": "44",
    "shortAddress": "144 E 1st St",
    "mappableAddress": "144 E 1st ST Mansfield OH",
    "latitude": "40.7557493",
    "longitude": "-82.5107404",
    "order": "47",
    "full_order": "47.003"
  },
  {
    "turf": "Turf6",
    "precinct": "Man6a",
    "SOS_VOTERID": "OH0015623886",
    "name": "Ebony Hunter",
    "age": "32",
    "shortAddress": "146 E 1st St",
    "mappableAddress": "146 E 1st ST Mansfield OH",
    "latitude": "40.7557411",
    "longitude": "-82.5106135",
    "order": "48",
    "full_order": "48"
  },
  {
    "turf": "Turf6",
    "precinct": "Man6a",
    "SOS_VOTERID": "OH0012703798",
    "name": "William West",
    "age": "45",
    "shortAddress": "104 S Glenn Ave",
    "mappableAddress": "104 S GLENN AVE Mansfield OH",
    "latitude": "40.755277",
    "longitude": "-82.5107404",
    "order": "48.2",
    "full_order": "48.2"
  },
  {
    "turf": "Turf6",
    "precinct": "Man6a",
    "SOS_VOTERID": "OH0023169208",
    "name": "Austin Roberts",
    "age": "20",
    "shortAddress": "104 S Glenn Ave",
    "mappableAddress": "104 S GLENN AVE Mansfield OH",
    "latitude": "40.755277",
    "longitude": "-82.5107404",
    "order": "48.2",
    "full_order": "48.201"
  },
  {
    "turf": "Turf6",
    "precinct": "Man6a",
    "SOS_VOTERID": "OH0012703694",
    "name": "Kim Randall",
    "age": "60",
    "shortAddress": "110 S Glenn Ave",
    "mappableAddress": "110 S GLENN AVE Mansfield OH",
    "latitude": "40.7550014",
    "longitude": "-82.5107404",
    "order": "48.4",
    "full_order": "48.4"
  },
  {
    "turf": "Turf6",
    "precinct": "Man6a",
    "SOS_VOTERID": "OH0023170589",
    "name": "James Gray",
    "age": "48",
    "shortAddress": "110 S Glenn Ave",
    "mappableAddress": "110 S GLENN AVE Mansfield OH",
    "latitude": "40.7550014",
    "longitude": "-82.5107404",
    "order": "48.4",
    "full_order": "48.401"
  },
  {
    "turf": "Turf6",
    "precinct": "Man6a",
    "SOS_VOTERID": "OH0024183935",
    "name": "William Glenn",
    "age": "60",
    "shortAddress": "110 S Glenn Ave",
    "mappableAddress": "110 S GLENN AVE Mansfield OH",
    "latitude": "40.7550014",
    "longitude": "-82.5107404",
    "order": "48.4",
    "full_order": "48.402"
  },
  {
    "turf": "Turf6",
    "precinct": "Man6a",
    "SOS_VOTERID": "OH0024298986",
    "name": "Stacy Randall",
    "age": "30",
    "shortAddress": "110 S Glenn Ave",
    "mappableAddress": "110 S GLENN AVE Mansfield OH",
    "latitude": "40.7550014",
    "longitude": "-82.5107404",
    "order": "48.4",
    "full_order": "48.403"
  },
  {
    "turf": "Turf6",
    "precinct": "Man6a",
    "SOS_VOTERID": "OH0012703792",
    "name": "Kahoma Grayson",
    "age": "46",
    "shortAddress": "105 S Glenn Ave",
    "mappableAddress": "105 S GLENN AVE Mansfield OH",
    "latitude": "40.7552183",
    "longitude": "-82.5104444",
    "order": "48.6",
    "full_order": "48.6"
  },
  {
    "turf": "Turf6",
    "precinct": "Man6a",
    "SOS_VOTERID": "OH0012703693",
    "name": "Theresa Hunter",
    "age": "73",
    "shortAddress": "152 E 1st St",
    "mappableAddress": "152 E 1st ST Mansfield OH",
    "latitude": "40.7557667",
    "longitude": "-82.5104021",
    "order": "49",
    "full_order": "49"
  },
  {
    "turf": "Turf6",
    "precinct": "Man6a",
    "SOS_VOTERID": "OH0012703793",
    "name": "Robert Hunter",
    "age": "72",
    "shortAddress": "152 E 1st St",
    "mappableAddress": "152 E 1st ST Mansfield OH",
    "latitude": "40.7557667",
    "longitude": "-82.5104021",
    "order": "49",
    "full_order": "49.001"
  },
  {
    "turf": "Turf6",
    "precinct": "Man6a",
    "SOS_VOTERID": "OH0012704200",
    "name": "Alicia Hunter",
    "age": "32",
    "shortAddress": "152 E 1st St",
    "mappableAddress": "152 E 1st ST Mansfield OH",
    "latitude": "40.7557667",
    "longitude": "-82.5104021",
    "order": "49",
    "full_order": "49.002"
  },
  {
    "turf": "Turf6",
    "precinct": "Man6a",
    "SOS_VOTERID": "OH0012703785",
    "name": "Dwana Washington",
    "age": "67",
    "shortAddress": "154 E 1st St",
    "mappableAddress": "154 E 1st ST Mansfield OH",
    "latitude": "40.7557767",
    "longitude": "-82.5102541",
    "order": "50",
    "full_order": "50"
  },
  {
    "turf": "Turf6",
    "precinct": "Man6a",
    "SOS_VOTERID": "OH0012704196",
    "name": "Meaghan Toler",
    "age": "32",
    "shortAddress": "154 E 1st St",
    "mappableAddress": "154 E 1st ST Mansfield OH",
    "latitude": "40.7557767",
    "longitude": "-82.5102541",
    "order": "50",
    "full_order": "50.001"
  },
  {
    "turf": "Turf6",
    "precinct": "Man6a",
    "SOS_VOTERID": "OH0021119486",
    "name": "Shaquille Jefferson",
    "age": "26",
    "shortAddress": "154 E 1st St",
    "mappableAddress": "154 E 1st ST Mansfield OH",
    "latitude": "40.7557767",
    "longitude": "-82.5102541",
    "order": "50",
    "full_order": "50.002"
  },
  {
    "turf": "Turf6",
    "precinct": "Man6a",
    "SOS_VOTERID": "OH0019154381",
    "name": "Whitney Cottrell",
    "age": "30",
    "shortAddress": "159 E 1st St",
    "mappableAddress": "159 E 1st ST Mansfield OH",
    "latitude": "40.7560651",
    "longitude": "-82.5101484",
    "order": "50.5",
    "full_order": "50.5"
  },
  {
    "turf": "Turf6",
    "precinct": "Man6a",
    "SOS_VOTERID": "OH0012698750",
    "name": "Christine Potter",
    "age": "36",
    "shortAddress": "74 Hedges St",
    "mappableAddress": "74 HEDGES ST Mansfield OH",
    "latitude": "40.756317",
    "longitude": "-82.510109",
    "order": "51",
    "full_order": "51"
  },
  {
    "turf": "Turf6",
    "precinct": "Man6a",
    "SOS_VOTERID": "OH0012704207",
    "name": "Adam Curry",
    "age": "32",
    "shortAddress": "74 Hedges St",
    "mappableAddress": "74 HEDGES ST Mansfield OH",
    "latitude": "40.756317",
    "longitude": "-82.510109",
    "order": "51",
    "full_order": "51.001"
  },
  {
    "turf": "Turf6",
    "precinct": "Man6a",
    "SOS_VOTERID": "OH0014064231",
    "name": "Terry Stokes",
    "age": "32",
    "shortAddress": "74 Hedges St",
    "mappableAddress": "74 HEDGES ST Mansfield OH",
    "latitude": "40.756317",
    "longitude": "-82.510109",
    "order": "51",
    "full_order": "51.002"
  },
  {
    "turf": "Turf6",
    "precinct": "Man6a",
    "SOS_VOTERID": "OH0022156504",
    "name": "Kiera Taylor",
    "age": "31",
    "shortAddress": "74 Hedges St",
    "mappableAddress": "74 HEDGES ST Mansfield OH",
    "latitude": "40.756317",
    "longitude": "-82.510109",
    "order": "51",
    "full_order": "51.003"
  },
  {
    "turf": "Turf6",
    "precinct": "Man6a",
    "SOS_VOTERID": "OH0018868170",
    "name": "Barbara Bentley",
    "age": "30",
    "shortAddress": "179 E 1st St",
    "mappableAddress": "179 E 1st ST Mansfield OH",
    "latitude": "40.7563249",
    "longitude": "-82.5093824",
    "order": "52",
    "full_order": "52"
  },
  {
    "turf": "Turf6",
    "precinct": "Man6a",
    "SOS_VOTERID": "OH0020138535",
    "name": "Harry Brooks",
    "age": "52",
    "shortAddress": "179 E 1st St",
    "mappableAddress": "179 E 1st ST Mansfield OH",
    "latitude": "40.7563249",
    "longitude": "-82.5093824",
    "order": "52",
    "full_order": "52.001"
  },
  {
    "turf": "Turf6",
    "precinct": "Man6a",
    "SOS_VOTERID": "OH0020175175",
    "name": "Hakeem Bentley",
    "age": "30",
    "shortAddress": "179 E 1st St",
    "mappableAddress": "179 E 1st ST Mansfield OH",
    "latitude": "40.7563249",
    "longitude": "-82.5093824",
    "order": "52",
    "full_order": "52.002"
  },
  {
    "turf": "Turf6",
    "precinct": "Man6a",
    "SOS_VOTERID": "OH0024272159",
    "name": "Joseph Kasler",
    "age": "38",
    "shortAddress": "179 E 1st St",
    "mappableAddress": "179 E 1st ST Mansfield OH",
    "latitude": "40.7563249",
    "longitude": "-82.5093824",
    "order": "52",
    "full_order": "52.003"
  },
  {
    "turf": "Turf6",
    "precinct": "Man6a",
    "SOS_VOTERID": "OH0022046540",
    "name": "Dalton Mitchell",
    "age": "25",
    "shortAddress": "53 Hedges St",
    "mappableAddress": "53 HEDGES ST Mansfield OH",
    "latitude": "40.7566775",
    "longitude": "-82.5095776",
    "order": "54",
    "full_order": "54"
  },
  {
    "turf": "Turf6",
    "precinct": "Man6a",
    "SOS_VOTERID": "OH0021261899",
    "name": "James Fields",
    "age": "66",
    "shortAddress": "60 Hedges St",
    "mappableAddress": "60 HEDGES ST Mansfield OH",
    "latitude": "40.7565686",
    "longitude": "-82.5100215",
    "order": "55",
    "full_order": "55"
  },
  {
    "turf": "Turf6",
    "precinct": "Man6a",
    "SOS_VOTERID": "OH0021261924",
    "name": "Lula Gadison",
    "age": "68",
    "shortAddress": "60 Hedges St",
    "mappableAddress": "60 HEDGES ST Mansfield OH",
    "latitude": "40.7565686",
    "longitude": "-82.5100215",
    "order": "55",
    "full_order": "55.001"
  }
]