[
  {
    "sosId": "OH0012701251",
    "name": "Tonya Edwards",
    "age": "35",
    "shortAddress": "88 E 2nd St",
    "precinct": "Man6a",
    "mappableAddress": "88 E 2ND ST Mansfield OH",
    "longitude": -82.5125163,
    "latitude": 40.7570456,
    "turf": "Turf5",
    "order": null,
    "full_order": 1
  },
  {
    "sosId": "OH0012669400",
    "name": "Aubrey Shepard",
    "age": "71",
    "shortAddress": "96 E 2nd St",
    "precinct": "Man6a",
    "mappableAddress": "96 E 2ND ST Mansfield OH",
    "longitude": -82.512046,
    "latitude": 40.756932,
    "turf": "Turf5",
    "order": null,
    "full_order": 1.5
  },
  {
    "sosId": "OH0023268426",
    "name": "Aubrey Shepard",
    "age": "54",
    "shortAddress": "96 E 2nd St",
    "precinct": "Man6a",
    "mappableAddress": "96 E 2ND ST Mansfield OH",
    "longitude": -82.512046,
    "latitude": 40.756932,
    "turf": "Turf5",
    "order": null,
    "full_order": 1.501
  },
  {
    "sosId": "OH0018900133",
    "name": "Darrell Spitler",
    "age": "39",
    "shortAddress": "96 E 2nd St Apt 2",
    "precinct": "Man6a",
    "mappableAddress": "96 E 2ND ST Mansfield OH",
    "longitude": -82.512046,
    "latitude": 40.756932,
    "turf": "Turf5",
    "order": null,
    "full_order": 1.503
  },
  {
    "sosId": "OH0022388434",
    "name": "Tony Shaw",
    "age": "52",
    "shortAddress": "96 E 2nd St Apt 3",
    "precinct": "Man6a",
    "mappableAddress": "96 E 2ND ST Mansfield OH",
    "longitude": -82.512046,
    "latitude": 40.756932,
    "turf": "Turf5",
    "order": null,
    "full_order": 1.505
  },
  {
    "sosId": "OH0023354111",
    "name": "Keith Hadden",
    "age": "51",
    "shortAddress": "96 E 2nd St Apt 4",
    "precinct": "Man6a",
    "mappableAddress": "96 E 2ND ST Mansfield OH",
    "longitude": -82.512046,
    "latitude": 40.756932,
    "turf": "Turf5",
    "order": null,
    "full_order": 1.507
  },
  {
    "sosId": "OH0012699499",
    "name": "Benjamin Caudill",
    "age": "39",
    "shortAddress": "96 E 2nd St Apt 5",
    "precinct": "Man6a",
    "mappableAddress": "96 E 2ND ST Mansfield OH",
    "longitude": -82.512046,
    "latitude": 40.756932,
    "turf": "Turf5",
    "order": null,
    "full_order": 1.509
  },
  {
    "sosId": "OH0012694136",
    "name": "Melissa Campbell",
    "age": "37",
    "shortAddress": "25 S Adams St",
    "precinct": "Man6a",
    "mappableAddress": "25 S ADAMS ST Mansfield OH",
    "longitude": -82.5115152,
    "latitude": 40.7574861,
    "turf": "Turf5",
    "order": null,
    "full_order": 2
  },
  {
    "sosId": "OH0024305898",
    "name": "Tiffany Novak",
    "age": "29",
    "shortAddress": "122 1/2 E 2nd St",
    "precinct": "Man6a",
    "mappableAddress": "122 E 2ND ST Mansfield OH",
    "longitude": -82.5112901,
    "latitude": 40.7570053,
    "turf": "Turf5",
    "order": null,
    "full_order": 3
  },
  {
    "sosId": "OH0012704018",
    "name": "Lonnie Johnson",
    "age": "68",
    "shortAddress": "122 E 2nd St",
    "precinct": "Man6a",
    "mappableAddress": "122 E 2ND ST Mansfield OH",
    "longitude": -82.5112901,
    "latitude": 40.7570053,
    "turf": "Turf5",
    "order": null,
    "full_order": 3.002
  },
  {
    "sosId": "OH0023839470",
    "name": "Jennifer Martin",
    "age": "38",
    "shortAddress": "122 E 2nd St",
    "precinct": "Man6a",
    "mappableAddress": "122 E 2ND ST Mansfield OH",
    "longitude": -82.5112901,
    "latitude": 40.7570053,
    "turf": "Turf5",
    "order": null,
    "full_order": 3.003
  },
  {
    "sosId": "OH0012668100",
    "name": "Richard Parker",
    "age": "74",
    "shortAddress": "120 E 2nd St",
    "precinct": "Man6a",
    "mappableAddress": "120 E 2ND ST Mansfield OH",
    "longitude": -82.51138,
    "latitude": 40.756994,
    "turf": "Turf5",
    "order": null,
    "full_order": 4
  },
  {
    "sosId": "OH0012703899",
    "name": "Larry Stratton",
    "age": "42",
    "shortAddress": "48 S Adams St",
    "precinct": "Man6a",
    "mappableAddress": "48 S ADAMS ST Mansfield OH",
    "longitude": -82.5121738,
    "latitude": 40.7570189,
    "turf": "Turf5",
    "order": null,
    "full_order": 5
  },
  {
    "sosId": "OH0012703641",
    "name": "Edwina Horne",
    "age": "81",
    "shortAddress": "56 S Adams St",
    "precinct": "Man6a",
    "mappableAddress": "56 S ADAMS ST Mansfield OH",
    "longitude": -82.5121883,
    "latitude": 40.7568088,
    "turf": "Turf5",
    "order": null,
    "full_order": 6
  },
  {
    "sosId": "OH0015099808",
    "name": "Laurie Howell",
    "age": "48",
    "shortAddress": "69 S Adams St",
    "precinct": "Man6a",
    "mappableAddress": "69 S ADAMS ST Mansfield OH",
    "longitude": -82.5116706,
    "latitude": 40.7564396,
    "turf": "Turf5",
    "order": null,
    "full_order": 7
  },
  {
    "sosId": "OH0012693795",
    "name": "Rayna Hutcherson",
    "age": "43",
    "shortAddress": "71 S Adams St",
    "precinct": "Man6a",
    "mappableAddress": "71 S ADAMS ST Mansfield OH",
    "longitude": -82.5116861,
    "latitude": 40.7563774,
    "turf": "Turf5",
    "order": null,
    "full_order": 8
  },
  {
    "sosId": "OH0012695081",
    "name": "Tarita Harris",
    "age": "50",
    "shortAddress": "71 S Adams St",
    "precinct": "Man6a",
    "mappableAddress": "71 S ADAMS ST Mansfield OH",
    "longitude": -82.5116861,
    "latitude": 40.7563774,
    "turf": "Turf5",
    "order": null,
    "full_order": 8.001
  },
  {
    "sosId": "OH0022334396",
    "name": "Shonna Julg",
    "age": "41",
    "shortAddress": "79 1/2 S Adams St",
    "precinct": "Man6a",
    "mappableAddress": "79 S ADAMS ST Mansfield OH",
    "longitude": -82.5117129,
    "latitude": 40.7561274,
    "turf": "Turf5",
    "order": null,
    "full_order": 9
  },
  {
    "sosId": "OH0012703727",
    "name": "Bruce Woodson",
    "age": "65",
    "shortAddress": "128 E 1st St",
    "precinct": "Man6a",
    "mappableAddress": "128 E 1st ST Mansfield OH",
    "longitude": -82.5112478,
    "latitude": 40.7558217,
    "turf": "Turf5",
    "order": null,
    "full_order": 11
  },
  {
    "sosId": "OH0012703872",
    "name": "Kim Wright",
    "age": "54",
    "shortAddress": "96 S Willis Ave",
    "precinct": "Man6a",
    "mappableAddress": "96 S WILLIS AVE Mansfield OH",
    "longitude": -82.5113324,
    "latitude": 40.7556697,
    "turf": "Turf5",
    "order": null,
    "full_order": 12
  },
  {
    "sosId": "OH0012704111",
    "name": "Tiara Wright",
    "age": "36",
    "shortAddress": "96 S Willis Ave",
    "precinct": "Man6a",
    "mappableAddress": "96 S WILLIS AVE Mansfield OH",
    "longitude": -82.5113324,
    "latitude": 40.7556697,
    "turf": "Turf5",
    "order": null,
    "full_order": 12.001
  },
  {
    "sosId": "OH0018190322",
    "name": "Benjamin Wright",
    "age": "31",
    "shortAddress": "96 S Willis Ave",
    "precinct": "Man6a",
    "mappableAddress": "96 S WILLIS AVE Mansfield OH",
    "longitude": -82.5113324,
    "latitude": 40.7556697,
    "turf": "Turf5",
    "order": null,
    "full_order": 12.002
  },
  {
    "sosId": "OH0020524286",
    "name": "Shauna Mccoy",
    "age": "28",
    "shortAddress": "96 S Willis Ave",
    "precinct": "Man6a",
    "mappableAddress": "96 S WILLIS AVE Mansfield OH",
    "longitude": -82.5113324,
    "latitude": 40.7556697,
    "turf": "Turf5",
    "order": null,
    "full_order": 12.003
  },
  {
    "sosId": "OH0012670203",
    "name": "Shari Workman",
    "age": "50",
    "shortAddress": "93 S Adams St",
    "precinct": "Man6a",
    "mappableAddress": "93 S ADAMS ST Mansfield OH",
    "longitude": -82.5114946,
    "latitude": 40.7555519,
    "turf": "Turf5",
    "order": null,
    "full_order": 14
  },
  {
    "sosId": "OH0012700220",
    "name": "Leslie Workman",
    "age": "52",
    "shortAddress": "93 S Adams St",
    "precinct": "Man6a",
    "mappableAddress": "93 S ADAMS ST Mansfield OH",
    "longitude": -82.5114946,
    "latitude": 40.7555519,
    "turf": "Turf5",
    "order": null,
    "full_order": 14.001
  },
  {
    "sosId": "OH0019218846",
    "name": "Nikki Delong",
    "age": "29",
    "shortAddress": "93 S Adams St",
    "precinct": "Man6a",
    "mappableAddress": "93 S ADAMS ST Mansfield OH",
    "longitude": -82.5114946,
    "latitude": 40.7555519,
    "turf": "Turf5",
    "order": null,
    "full_order": 14.002
  },
  {
    "sosId": "OH0023124585",
    "name": "Leslie Workman",
    "age": "22",
    "shortAddress": "93 S Adams St",
    "precinct": "Man6a",
    "mappableAddress": "93 S ADAMS ST Mansfield OH",
    "longitude": -82.5114946,
    "latitude": 40.7555519,
    "turf": "Turf5",
    "order": null,
    "full_order": 14.003
  },
  {
    "sosId": "OH0012704156",
    "name": "Sidney Walker",
    "age": "85",
    "shortAddress": "103 S Adams St",
    "precinct": "Man6a",
    "mappableAddress": "103 S ADAMS ST Mansfield OH",
    "longitude": -82.5117129,
    "latitude": 40.7554583,
    "turf": "Turf5",
    "order": null,
    "full_order": 15
  },
  {
    "sosId": "OH0018305546",
    "name": "James Daniel",
    "age": "81",
    "shortAddress": "103 1/2 S Adams St",
    "precinct": "Man6a",
    "mappableAddress": "103 S ADAMS ST Mansfield OH",
    "longitude": -82.5117129,
    "latitude": 40.7554583,
    "turf": "Turf5",
    "order": null,
    "full_order": 15.5
  },
  {
    "sosId": "OH0012694801",
    "name": "Shellie Carter",
    "age": "56",
    "shortAddress": "113 S Adams St",
    "precinct": "Man6a",
    "mappableAddress": "113 S ADAMS ST Mansfield OH",
    "longitude": -82.5116473,
    "latitude": 40.7551962,
    "turf": "Turf5",
    "order": null,
    "full_order": 16
  },
  {
    "sosId": "OH0012666705",
    "name": "Maria Black",
    "age": "35",
    "shortAddress": "123 S Adams St",
    "precinct": "Man6a",
    "mappableAddress": "123 S ADAMS ST Mansfield OH",
    "longitude": -82.5117552,
    "latitude": 40.7548706,
    "turf": "Turf5",
    "order": null,
    "full_order": 17
  },
  {
    "sosId": "OH0024171619",
    "name": "Debora Caldwell",
    "age": "56",
    "shortAddress": "129 S Adams St",
    "precinct": "Man6a",
    "mappableAddress": "129 S ADAMS ST Mansfield OH",
    "longitude": -82.5118398,
    "latitude": 40.754758,
    "turf": "Turf5",
    "order": null,
    "full_order": 18
  },
  {
    "sosId": "OH0012703998",
    "name": "Roy Marshall",
    "age": "71",
    "shortAddress": "131 S Adams St",
    "precinct": "Man6a",
    "mappableAddress": "131 S ADAMS ST Mansfield OH",
    "longitude": -82.5118398,
    "latitude": 40.7546792,
    "turf": "Turf5",
    "order": 19,
    "full_order": 19
  },
  {
    "sosId": "OH0021039883",
    "name": "Talaina Elder",
    "age": "40",
    "shortAddress": "141 S Adams St",
    "precinct": "Man6a",
    "mappableAddress": "141 S ADAMS ST Mansfield OH",
    "longitude": -82.5115725,
    "latitude": 40.7544925,
    "turf": "Turf5",
    "order": 20,
    "full_order": 20
  },
  {
    "sosId": "OH0023575109",
    "name": "Yakyra Marshall",
    "age": "19",
    "shortAddress": "141 S Adams St",
    "precinct": "Man6a",
    "mappableAddress": "141 S ADAMS ST Mansfield OH",
    "longitude": -82.5115725,
    "latitude": 40.7544925,
    "turf": "Turf5",
    "order": 20,
    "full_order": 20.001
  },
  {
    "sosId": "OH0023103639",
    "name": "Astianna Likely",
    "age": "22",
    "shortAddress": "147 S Adams St",
    "precinct": "Man6a",
    "mappableAddress": "147 S ADAMS ST Mansfield OH",
    "longitude": -82.5119814,
    "latitude": 40.7543683,
    "turf": "Turf5",
    "order": 20.5,
    "full_order": 20.5
  },
  {
    "sosId": "OH0012703788",
    "name": "Geraldine Freeman",
    "age": "77",
    "shortAddress": "129 E Arch St",
    "precinct": "Man6a",
    "mappableAddress": "129 E ARCH ST Mansfield OH",
    "longitude": -82.5113747,
    "latitude": 40.7542947,
    "turf": "Turf5",
    "order": 21,
    "full_order": 21
  },
  {
    "sosId": "OH0012703913",
    "name": "Tyrone Smith",
    "age": "45",
    "shortAddress": "129 E Arch St",
    "precinct": "Man6a",
    "mappableAddress": "129 E ARCH ST Mansfield OH",
    "longitude": -82.5113747,
    "latitude": 40.7542947,
    "turf": "Turf5",
    "order": 21,
    "full_order": 21.001
  },
  {
    "sosId": "OH0023250984",
    "name": "Brandon Oneil",
    "age": "29",
    "shortAddress": "129 E Arch St",
    "precinct": "Man6a",
    "mappableAddress": "129 E ARCH ST Mansfield OH",
    "longitude": -82.5113747,
    "latitude": 40.7542947,
    "turf": "Turf5",
    "order": 21,
    "full_order": 21.002
  },
  {
    "sosId": "OH0012703707",
    "name": "Pamela Mccoy",
    "age": "65",
    "shortAddress": "144 S Adams St",
    "precinct": "Man6a",
    "mappableAddress": "144 S ADAMS ST Mansfield OH",
    "longitude": -82.5122626,
    "latitude": 40.7543524,
    "turf": "Turf5",
    "order": 22,
    "full_order": 22
  },
  {
    "sosId": "OH0012703690",
    "name": "Anna Williams",
    "age": "97",
    "shortAddress": "140 S Adams St",
    "precinct": "Man6a",
    "mappableAddress": "140 S ADAMS ST Mansfield OH",
    "longitude": -82.5122626,
    "latitude": 40.7544705,
    "turf": "Turf5",
    "order": 23,
    "full_order": 23
  },
  {
    "sosId": "OH0012704092",
    "name": "Toki Chapman",
    "age": "56",
    "shortAddress": "124 S Adams St",
    "precinct": "Man6a",
    "mappableAddress": "124 S ADAMS ST Mansfield OH",
    "longitude": -82.5123049,
    "latitude": 40.7549063,
    "turf": "Turf5",
    "order": 24,
    "full_order": 24
  },
  {
    "sosId": "OH0012703790",
    "name": "John Jones",
    "age": "99",
    "shortAddress": "124 S Adams St Apt 4",
    "precinct": "Man6a",
    "mappableAddress": "124 S ADAMS ST Mansfield OH",
    "longitude": -82.5123049,
    "latitude": 40.7549063,
    "turf": "Turf5",
    "order": 24,
    "full_order": 24.002
  },
  {
    "sosId": "OH0020621079",
    "name": "Spencer Moss",
    "age": "55",
    "shortAddress": "124 S Adams St Apt 4",
    "precinct": "Man6a",
    "mappableAddress": "124 S ADAMS ST Mansfield OH",
    "longitude": -82.5123049,
    "latitude": 40.7549063,
    "turf": "Turf5",
    "order": 24,
    "full_order": 24.003
  },
  {
    "sosId": "OH0021715804",
    "name": "Donnie Reynolds",
    "age": "61",
    "shortAddress": "124 S Adams St Apt 4",
    "precinct": "Man6a",
    "mappableAddress": "124 S ADAMS ST Mansfield OH",
    "longitude": -82.5123049,
    "latitude": 40.7549063,
    "turf": "Turf5",
    "order": 24,
    "full_order": 24.004
  },
  {
    "sosId": "OH0021607425",
    "name": "John Holifield",
    "age": "75",
    "shortAddress": "124 S Adams St Apt 5",
    "precinct": "Man6a",
    "mappableAddress": "124 S ADAMS ST Mansfield OH",
    "longitude": -82.5123049,
    "latitude": 40.7549063,
    "turf": "Turf5",
    "order": 24,
    "full_order": 24.006
  },
  {
    "sosId": "OH0021625173",
    "name": "Richard Grubbs",
    "age": "24",
    "shortAddress": "118 S Adams St",
    "precinct": "Man6a",
    "mappableAddress": "118 S ADAMS ST Mansfield OH",
    "longitude": -82.5123799,
    "latitude": 40.755109,
    "turf": "Turf5",
    "order": 25,
    "full_order": 25
  },
  {
    "sosId": "OH0022405579",
    "name": "Amy Grubbs",
    "age": "23",
    "shortAddress": "118 S Adams St",
    "precinct": "Man6a",
    "mappableAddress": "118 S ADAMS ST Mansfield OH",
    "longitude": -82.5123799,
    "latitude": 40.755109,
    "turf": "Turf5",
    "order": 25,
    "full_order": 25.001
  },
  {
    "sosId": "OH0022340361",
    "name": "Shavatia Jefferson",
    "age": "22",
    "shortAddress": "110 S Adams St",
    "precinct": "Man6a",
    "mappableAddress": "110 S ADAMS ST Mansfield OH",
    "longitude": -82.512157,
    "latitude": 40.755449,
    "turf": "Turf5",
    "order": 26,
    "full_order": 26
  },
  {
    "sosId": "OH0012664087",
    "name": "Richard Ousley",
    "age": "56",
    "shortAddress": "95 E 1st St",
    "precinct": "Man6a",
    "mappableAddress": "95 E 1st ST Mansfield OH",
    "longitude": -82.5121189,
    "latitude": 40.7561569,
    "turf": "Turf5",
    "order": 27,
    "full_order": 27
  },
  {
    "sosId": "OH0016002517",
    "name": "Carmela Bailey",
    "age": "32",
    "shortAddress": "95 E 1st St",
    "precinct": "Man6a",
    "mappableAddress": "95 E 1st ST Mansfield OH",
    "longitude": -82.5121189,
    "latitude": 40.7561569,
    "turf": "Turf5",
    "order": 27,
    "full_order": 27.001
  },
  {
    "sosId": "OH0019111815",
    "name": "Elizabeth Brown",
    "age": "58",
    "shortAddress": "95 E 1st St",
    "precinct": "Man6a",
    "mappableAddress": "95 E 1st ST Mansfield OH",
    "longitude": -82.5121189,
    "latitude": 40.7561569,
    "turf": "Turf5",
    "order": 27,
    "full_order": 27.002
  },
  {
    "sosId": "OH0012666281",
    "name": "Karen Brooks",
    "age": "45",
    "shortAddress": "95 E 1st St Apt A",
    "precinct": "Man6a",
    "mappableAddress": "95 E 1st ST Mansfield OH",
    "longitude": -82.5121189,
    "latitude": 40.7561569,
    "turf": "Turf5",
    "order": 27,
    "full_order": 27.004
  },
  {
    "sosId": "OH0023233343",
    "name": "Richard Vanwagner",
    "age": "43",
    "shortAddress": "87 E 1st St",
    "precinct": "Man6a",
    "mappableAddress": "87 E 1st ST Mansfield OH",
    "longitude": -82.5128757,
    "latitude": 40.7562621,
    "turf": "Turf5",
    "order": 28,
    "full_order": 28
  },
  {
    "sosId": "OH0024046841",
    "name": "Lori Quirk",
    "age": "59",
    "shortAddress": "87 E 1st St Apt A",
    "precinct": "Man6a",
    "mappableAddress": "87 E 1st ST Mansfield OH",
    "longitude": -82.5128757,
    "latitude": 40.7562621,
    "turf": "Turf5",
    "order": 28,
    "full_order": 28.002
  },
  {
    "sosId": "OH0020913824",
    "name": "Carol Thompkins",
    "age": "32",
    "shortAddress": "93 S Franklin St",
    "precinct": "Man6a",
    "mappableAddress": "93 S FRANKLIN ST Mansfield OH",
    "longitude": -82.513214,
    "latitude": 40.755733,
    "turf": "Turf5",
    "order": 29,
    "full_order": 29
  },
  {
    "sosId": "OH0021157792",
    "name": "Goldie Kours",
    "age": "90",
    "shortAddress": "93 S Franklin St",
    "precinct": "Man6a",
    "mappableAddress": "93 S FRANKLIN ST Mansfield OH",
    "longitude": -82.513214,
    "latitude": 40.755733,
    "turf": "Turf5",
    "order": 29,
    "full_order": 29.001
  },
  {
    "sosId": "OH0023490985",
    "name": "Jonathan Spears",
    "age": "20",
    "shortAddress": "93 S Franklin St",
    "precinct": "Man6a",
    "mappableAddress": "93 S FRANKLIN ST Mansfield OH",
    "longitude": -82.513214,
    "latitude": 40.755733,
    "turf": "Turf5",
    "order": 29,
    "full_order": 29.002
  },
  {
    "sosId": "OH0020819115",
    "name": "Ronald Hartge",
    "age": "60",
    "shortAddress": "95 1/2 S Franklin St",
    "precinct": "Man6a",
    "mappableAddress": "95 S FRANKLIN ST Mansfield OH",
    "longitude": -82.5132501,
    "latitude": 40.7557177,
    "turf": "Turf5",
    "order": 30,
    "full_order": 30
  },
  {
    "sosId": "OH0021375857",
    "name": "Julius Jose",
    "age": "32",
    "shortAddress": "95 S Franklin St",
    "precinct": "Man6a",
    "mappableAddress": "95 S FRANKLIN ST Mansfield OH",
    "longitude": -82.5132501,
    "latitude": 40.7557177,
    "turf": "Turf5",
    "order": 30,
    "full_order": 30.002
  },
  {
    "sosId": "OH0020851191",
    "name": "Aaron Shone",
    "age": "26",
    "shortAddress": "105 S Franklin St",
    "precinct": "Man6a",
    "mappableAddress": "105 S FRANKLIN ST Mansfield OH",
    "longitude": -82.5132351,
    "latitude": 40.7556359,
    "turf": "Turf5",
    "order": 30.5,
    "full_order": 30.5
  },
  {
    "sosId": "OH0012703936",
    "name": "Theora Mills",
    "age": "41",
    "shortAddress": "98 S Franklin St",
    "precinct": "Man6a",
    "mappableAddress": "98 S FRANKLIN ST Mansfield OH",
    "longitude": -82.5136685,
    "latitude": 40.7555952,
    "turf": "Turf5",
    "order": 30.6,
    "full_order": 30.6
  },
  {
    "sosId": "OH0022264781",
    "name": "Clayton Santee",
    "age": "24",
    "shortAddress": "98 S Franklin St",
    "precinct": "Man6a",
    "mappableAddress": "98 S FRANKLIN ST Mansfield OH",
    "longitude": -82.5136685,
    "latitude": 40.7555952,
    "turf": "Turf5",
    "order": 30.6,
    "full_order": 30.601
  },
  {
    "sosId": "OH0023146786",
    "name": "Natasha Engle",
    "age": "25",
    "shortAddress": "111 S Franklin St",
    "precinct": "Man6a",
    "mappableAddress": "111 S FRANKLIN ST Mansfield OH",
    "longitude": -82.5131506,
    "latitude": 40.7553549,
    "turf": "Turf5",
    "order": 31,
    "full_order": 31
  },
  {
    "sosId": "OH0021176566",
    "name": "De Andre Washington",
    "age": "26",
    "shortAddress": "117 S Franklin St",
    "precinct": "Man6a",
    "mappableAddress": "117 S FRANKLIN ST Mansfield OH",
    "longitude": -82.513138,
    "latitude": 40.755128,
    "turf": "Turf5",
    "order": 32,
    "full_order": 32
  },
  {
    "sosId": "OH0021449439",
    "name": "Katie Windsor",
    "age": "24",
    "shortAddress": "137 S Franklin St",
    "precinct": "Man6a",
    "mappableAddress": "137 S FRANKLIN ST Mansfield OH",
    "longitude": -82.513105,
    "latitude": 40.754592,
    "turf": "Turf5",
    "order": 32.5,
    "full_order": 32.5
  },
  {
    "sosId": "OH0012670268",
    "name": "Brian Baldridge",
    "age": "53",
    "shortAddress": "88 E Arch St",
    "precinct": "Man6a",
    "mappableAddress": "88 E ARCH ST Mansfield OH",
    "longitude": -82.5128969,
    "latitude": 40.7540787,
    "turf": "Turf5",
    "order": 33,
    "full_order": 33
  },
  {
    "sosId": "OH0022370700",
    "name": "Sasha Gill",
    "age": "38",
    "shortAddress": "158 S Franklin St",
    "precinct": "Man6a",
    "mappableAddress": "158 S FRANKLIN ST Mansfield OH",
    "longitude": -82.5137848,
    "latitude": 40.7539396,
    "turf": "Turf5",
    "order": 34,
    "full_order": 34
  },
  {
    "sosId": "OH0012670240",
    "name": "Michael Sinclair",
    "age": "60",
    "shortAddress": "62 E Arch St",
    "precinct": "Man6a",
    "mappableAddress": "62 E ARCH ST Mansfield OH",
    "longitude": -82.5137848,
    "latitude": 40.7541364,
    "turf": "Turf5",
    "order": 35,
    "full_order": 35
  },
  {
    "sosId": "OH0012670637",
    "name": "Steven Yosick",
    "age": "48",
    "shortAddress": "62 E Arch St",
    "precinct": "Man6a",
    "mappableAddress": "62 E ARCH ST Mansfield OH",
    "longitude": -82.5137848,
    "latitude": 40.7541364,
    "turf": "Turf5",
    "order": 35,
    "full_order": 35.001
  },
  {
    "sosId": "OH0012670229",
    "name": "Michele Grillo",
    "age": "53",
    "shortAddress": "54 E Arch St",
    "precinct": "Man6a",
    "mappableAddress": "54 E ARCH ST Mansfield OH",
    "longitude": -82.5139962,
    "latitude": 40.7541895,
    "turf": "Turf5",
    "order": 36,
    "full_order": 36
  },
  {
    "sosId": "OH0020132469",
    "name": "Shunton Jacocks",
    "age": "44",
    "shortAddress": "161 S Diamond St",
    "precinct": "Man6a",
    "mappableAddress": "161 S DIAMOND ST Mansfield OH",
    "longitude": -82.5141442,
    "latitude": 40.7539827,
    "turf": "Turf5",
    "order": 37,
    "full_order": 37
  },
  {
    "sosId": "OH0021741314",
    "name": "Azairiah Troche",
    "age": "23",
    "shortAddress": "161 S Diamond St",
    "precinct": "Man6a",
    "mappableAddress": "161 S DIAMOND ST Mansfield OH",
    "longitude": -82.5141442,
    "latitude": 40.7539827,
    "turf": "Turf5",
    "order": 37,
    "full_order": 37.001
  },
  {
    "sosId": "OH0022405582",
    "name": "Victavia Jacocks",
    "age": "23",
    "shortAddress": "161 S Diamond St",
    "precinct": "Man6a",
    "mappableAddress": "161 S DIAMOND ST Mansfield OH",
    "longitude": -82.5141442,
    "latitude": 40.7539827,
    "turf": "Turf5",
    "order": 37,
    "full_order": 37.002
  },
  {
    "sosId": "OH0012663139",
    "name": "Susan Wolf",
    "age": "58",
    "shortAddress": "25 E Arch St",
    "precinct": "Man6a",
    "mappableAddress": "25 E ARCH ST Mansfield OH",
    "longitude": -82.516826,
    "latitude": 40.7543,
    "turf": "Turf5",
    "order": 38,
    "full_order": 38
  },
  {
    "sosId": "OH0012703624",
    "name": "Diane Bosko",
    "age": "68",
    "shortAddress": "25 E Arch St",
    "precinct": "Man6a",
    "mappableAddress": "25 E ARCH ST Mansfield OH",
    "longitude": -82.516826,
    "latitude": 40.7543,
    "turf": "Turf5",
    "order": 38,
    "full_order": 38.001
  },
  {
    "sosId": "OH0024433400",
    "name": "Vicki Reiner",
    "age": "46",
    "shortAddress": "25 E Arch St",
    "precinct": "Man6a",
    "mappableAddress": "25 E ARCH ST Mansfield OH",
    "longitude": -82.516826,
    "latitude": 40.7543,
    "turf": "Turf5",
    "order": 38,
    "full_order": 38.002
  },
  {
    "sosId": "OH0020188258",
    "name": "Carl Powell",
    "age": "46",
    "shortAddress": "19 E Arch St",
    "precinct": "Man6a",
    "mappableAddress": "19 E ARCH ST Mansfield OH 44902<blue>",
    "longitude": null,
    "latitude": null,
    "turf": "Turf5",
    "order": 1,
    "full_order": 0
  },
  {
    "sosId": "OH0023040652",
    "name": "Alexis Utt",
    "age": "22",
    "shortAddress": "146 S Diamond St",
    "precinct": "Man6a",
    "mappableAddress": "146 S DIAMOND ST Mansfield OH",
    "longitude": -82.5145543,
    "latitude": 40.7544597,
    "turf": "Turf5",
    "order": 39,
    "full_order": 39
  },
  {
    "sosId": "OH0012701284",
    "name": "Kimberly Brown",
    "age": "33",
    "shortAddress": "147 S Diamond St",
    "precinct": "Man6a",
    "mappableAddress": "147 S DIAMOND ST Mansfield OH",
    "longitude": -82.5140871,
    "latitude": 40.754424,
    "turf": "Turf5",
    "order": 39.5,
    "full_order": 39.5
  },
  {
    "sosId": "OH0021720960",
    "name": "Yalanda Wilburn",
    "age": "37",
    "shortAddress": "147 S Diamond St",
    "precinct": "Man6a",
    "mappableAddress": "147 S DIAMOND ST Mansfield OH",
    "longitude": -82.5140871,
    "latitude": 40.754424,
    "turf": "Turf5",
    "order": 39.5,
    "full_order": 39.501
  },
  {
    "sosId": "OH0012667942",
    "name": "Karen Sigler",
    "age": "62",
    "shortAddress": "53 E Arch St",
    "precinct": "Man6a",
    "mappableAddress": "53 E ARCH ST Mansfield OH",
    "longitude": -82.5142076,
    "latitude": 40.7544001,
    "turf": "Turf5",
    "order": 40,
    "full_order": 40
  },
  {
    "sosId": "OH0012665486",
    "name": "Lisa Moore",
    "age": "48",
    "shortAddress": "55 E Arch St",
    "precinct": "Man6a",
    "mappableAddress": "55 E ARCH ST Mansfield OH",
    "longitude": -82.5180975,
    "latitude": 40.7543379,
    "turf": "Turf5",
    "order": 41,
    "full_order": 41
  },
  {
    "sosId": "OH0012722249",
    "name": "John Westmoreland",
    "age": "72",
    "shortAddress": "55 E Arch St",
    "precinct": "Man6a",
    "mappableAddress": "55 E ARCH ST Mansfield OH",
    "longitude": -82.5180975,
    "latitude": 40.7543379,
    "turf": "Turf5",
    "order": 41,
    "full_order": 41.001
  },
  {
    "sosId": "OH0012701794",
    "name": "Christopher Liniger",
    "age": "40",
    "shortAddress": "57 E Arch St",
    "precinct": "Man6a",
    "mappableAddress": "57 E ARCH ST Mansfield OH",
    "longitude": -82.5139573,
    "latitude": 40.7543764,
    "turf": "Turf5",
    "order": 42,
    "full_order": 42
  },
  {
    "sosId": "OH0019868560",
    "name": "Chrissa Mcquiller",
    "age": "30",
    "shortAddress": "57 E Arch St",
    "precinct": "Man6a",
    "mappableAddress": "57 E ARCH ST Mansfield OH",
    "longitude": -82.5139573,
    "latitude": 40.7543764,
    "turf": "Turf5",
    "order": 42,
    "full_order": 42.001
  },
  {
    "sosId": "OH0021625750",
    "name": "Jason Blackwell",
    "age": "32",
    "shortAddress": "57 E Arch St",
    "precinct": "Man6a",
    "mappableAddress": "57 E ARCH ST Mansfield OH",
    "longitude": -82.5139573,
    "latitude": 40.7543764,
    "turf": "Turf5",
    "order": 42,
    "full_order": 42.002
  },
  {
    "sosId": "OH0024181180",
    "name": "Victory Allman",
    "age": "20",
    "shortAddress": "57 E Arch St",
    "precinct": "Man6a",
    "mappableAddress": "57 E ARCH ST Mansfield OH",
    "longitude": -82.5139573,
    "latitude": 40.7543764,
    "turf": "Turf5",
    "order": 42,
    "full_order": 42.003
  },
  {
    "sosId": "OH0012703820",
    "name": "Lona Birchfield",
    "age": "54",
    "shortAddress": "138 S Franklin St",
    "precinct": "Man6a",
    "mappableAddress": "138 S FRANKLIN ST Mansfield OH",
    "longitude": -82.5137425,
    "latitude": 40.7546061,
    "turf": "Turf5",
    "order": 44,
    "full_order": 44
  },
  {
    "sosId": "OH0012704063",
    "name": "Tania Shouse",
    "age": "38",
    "shortAddress": "138 1/2 S Franklin St",
    "precinct": "Man6a",
    "mappableAddress": "138 S FRANKLIN ST Mansfield OH",
    "longitude": -82.5137425,
    "latitude": 40.7546061,
    "turf": "Turf5",
    "order": 44.5,
    "full_order": 44.5
  },
  {
    "sosId": "OH0012670978",
    "name": "Daniel Burgess",
    "age": "49",
    "shortAddress": "132 S Franklin St",
    "precinct": "Man6a",
    "mappableAddress": "132 S FRANKLIN ST Mansfield OH",
    "longitude": -82.513732,
    "latitude": 40.754753,
    "turf": "Turf5",
    "order": 45,
    "full_order": 45
  },
  {
    "sosId": "OH0022413671",
    "name": "Daniel Burgess",
    "age": "78",
    "shortAddress": "132 S Franklin St",
    "precinct": "Man6a",
    "mappableAddress": "132 S FRANKLIN ST Mansfield OH",
    "longitude": -82.513732,
    "latitude": 40.754753,
    "turf": "Turf5",
    "order": 45,
    "full_order": 45.001
  },
  {
    "sosId": "OH0012703760",
    "name": "Joan Burgess",
    "age": "73",
    "shortAddress": "132 S Franklin St",
    "precinct": "Man6a",
    "mappableAddress": "132 S FRANKLIN AVE Mansfield OH",
    "longitude": -82.513732,
    "latitude": 40.754753,
    "turf": "Turf5",
    "order": 45,
    "full_order": 45.002
  },
  {
    "sosId": "OH0024461660",
    "name": "Kimberly Perkins",
    "age": "47",
    "shortAddress": "126 S Franklin St",
    "precinct": "Man6a",
    "mappableAddress": "126 S FRANKLIN ST Mansfield OH",
    "longitude": -82.5137265,
    "latitude": 40.754887,
    "turf": "Turf5",
    "order": 46,
    "full_order": 46
  },
  {
    "sosId": "OH0020449046",
    "name": "Sherry Whetstone",
    "age": "35",
    "shortAddress": "124 S Franklin St",
    "precinct": "Man6a",
    "mappableAddress": "124 S FRANKLIN ST Mansfield OH",
    "longitude": -82.5137002,
    "latitude": 40.754997,
    "turf": "Turf5",
    "order": 47,
    "full_order": 47
  },
  {
    "sosId": "OH0012703676",
    "name": "Juanita Martin",
    "age": "77",
    "shortAddress": "123 S Diamond St",
    "precinct": "Man6a",
    "mappableAddress": "123 S DIAMOND ST Mansfield OH",
    "longitude": -82.5141231,
    "latitude": 40.7550244,
    "turf": "Turf5",
    "order": 48,
    "full_order": 48
  },
  {
    "sosId": "OH0012703750",
    "name": "John Burdette",
    "age": "74",
    "shortAddress": "127 S Diamond St",
    "precinct": "Man6a",
    "mappableAddress": "127 S DIAMOND ST Mansfield OH",
    "longitude": -82.5141548,
    "latitude": 40.7549183,
    "turf": "Turf5",
    "order": 49,
    "full_order": 49
  },
  {
    "sosId": "OH0012703861",
    "name": "Marjorie Burdette",
    "age": "76",
    "shortAddress": "127 S Diamond St",
    "precinct": "Man6a",
    "mappableAddress": "127 S DIAMOND ST Mansfield OH",
    "longitude": -82.5141548,
    "latitude": 40.7549183,
    "turf": "Turf5",
    "order": 49,
    "full_order": 49.001
  },
  {
    "sosId": "OH0021306274",
    "name": "Terry Sweet",
    "age": "50",
    "shortAddress": "147 1/2 S Diamond St",
    "precinct": "Man6a",
    "mappableAddress": "147 S DIAMOND ST Mansfield OH",
    "longitude": -82.5140871,
    "latitude": 40.754424,
    "turf": "Turf5",
    "order": 50,
    "full_order": 50
  },
  {
    "sosId": "OH0012714729",
    "name": "Meggan Roberts",
    "age": "35",
    "shortAddress": "59 1/2 S Diamond St",
    "precinct": "Man6a",
    "mappableAddress": "59 S DIAMOND ST Mansfield OH",
    "longitude": -82.5139136,
    "latitude": 40.7566923,
    "turf": "Turf5",
    "order": 55,
    "full_order": 55
  }
]