[
  {
    "sosId": "OH0023234532",
    "name": "Donald Mash",
    "age": "29",
    "shortAddress": "180 Park Ave E",
    "precinct": "Man6a",
    "mappableAddress": "180 PARK AVE E Mansfield OH",
    "longitude": -82.509127,
    "latitude": 40.757935,
    "turf": "Turf6",
    "order": null,
    "full_order": null
  },
  {
    "sosId": "OH0024236929",
    "name": "Sheri Keen",
    "age": "40",
    "shortAddress": "180 Park Ave E",
    "precinct": "Man6a",
    "mappableAddress": "180 PARK AVE E Mansfield OH",
    "longitude": -82.509127,
    "latitude": 40.757935,
    "turf": "Turf6",
    "order": null,
    "full_order": null
  },
  {
    "sosId": "OH0012704395",
    "name": "Gwen Clemons",
    "age": "57",
    "shortAddress": "200 Park Ave E",
    "precinct": "Man6a",
    "mappableAddress": "200 PARK AVE E Mansfield OH",
    "longitude": -82.5083301,
    "latitude": 40.7580331,
    "turf": "Turf6",
    "order": null,
    "full_order": null
  },
  {
    "sosId": "OH0016417725",
    "name": "Douglas Jackson",
    "age": "31",
    "shortAddress": "200 Park Ave E",
    "precinct": "Man6a",
    "mappableAddress": "200 PARK AVE E Mansfield OH",
    "longitude": -82.5083301,
    "latitude": 40.7580331,
    "turf": "Turf6",
    "order": null,
    "full_order": null
  },
  {
    "sosId": "OH0012704293",
    "name": "Larry Clemons",
    "age": "60",
    "shortAddress": "202 Park Ave E",
    "precinct": "Man6a",
    "mappableAddress": "202 PARK AVE E Mansfield OH",
    "longitude": -82.5082751,
    "latitude": 40.7582465,
    "turf": "Turf6",
    "order": null,
    "full_order": null
  },
  {
    "sosId": "OH0016417184",
    "name": "Roderick Johnson",
    "age": "31",
    "shortAddress": "202 Park Ave E",
    "precinct": "Man6a",
    "mappableAddress": "202 PARK AVE E Mansfield OH",
    "longitude": -82.5082751,
    "latitude": 40.7582465,
    "turf": "Turf6",
    "order": null,
    "full_order": null
  },
  {
    "sosId": "OH0022109835",
    "name": "Phillip Clemons",
    "age": "23",
    "shortAddress": "202 Park Ave E",
    "precinct": "Man6a",
    "mappableAddress": "202 PARK AVE E Mansfield OH",
    "longitude": -82.5082751,
    "latitude": 40.7582465,
    "turf": "Turf6",
    "order": null,
    "full_order": null
  },
  {
    "sosId": "OH0021448990",
    "name": "Jacques Cowan",
    "age": "25",
    "shortAddress": "14 S Foster St",
    "precinct": "Man6a",
    "mappableAddress": "14 S FOSTER ST Mansfield OH",
    "longitude": -82.5083724,
    "latitude": 40.7577603,
    "turf": "Turf6",
    "order": null,
    "full_order": null
  },
  {
    "sosId": "OH0022726547",
    "name": "Holly Doss",
    "age": "23",
    "shortAddress": "14 S Foster St",
    "precinct": "Man6a",
    "mappableAddress": "14 S FOSTER ST Mansfield OH",
    "longitude": -82.5083724,
    "latitude": 40.7577603,
    "turf": "Turf6",
    "order": null,
    "full_order": null
  },
  {
    "sosId": "OH0012704174",
    "name": "Shirley English",
    "age": "63",
    "shortAddress": "16 S Foster St",
    "precinct": "Man6a",
    "mappableAddress": "16 S FOSTER ST Mansfield OH",
    "longitude": -82.5083724,
    "latitude": 40.7576816,
    "turf": "Turf6",
    "order": null,
    "full_order": null
  },
  {
    "sosId": "OH0012703765",
    "name": "John Tasker",
    "age": "48",
    "shortAddress": "24 S Foster St",
    "precinct": "Man6a",
    "mappableAddress": "24 S FOSTER ST Mansfield OH",
    "longitude": -82.5084147,
    "latitude": 40.7574088,
    "turf": "Turf6",
    "order": null,
    "full_order": null
  },
  {
    "sosId": "OH0012667779",
    "name": "Betsey Willis",
    "age": "59",
    "shortAddress": "201 E 2nd St",
    "precinct": "Man6a",
    "mappableAddress": "201 E 2ND ST Mansfield OH",
    "longitude": -82.5083724,
    "latitude": 40.7572092,
    "turf": "Turf6",
    "order": null,
    "full_order": null
  },
  {
    "sosId": "OH0018874704",
    "name": "Tamika Moore",
    "age": "40",
    "shortAddress": "181 E 2nd St",
    "precinct": "Man6a",
    "mappableAddress": "181 E 2ND ST Mansfield OH",
    "longitude": -82.5088376,
    "latitude": 40.7572395,
    "turf": "Turf6",
    "order": null,
    "full_order": null
  },
  {
    "sosId": "OH0021624893",
    "name": "Jatavia Brewer",
    "age": "26",
    "shortAddress": "181 E 2nd St",
    "precinct": "Man6a",
    "mappableAddress": "181 E 2ND ST Mansfield OH",
    "longitude": -82.5088376,
    "latitude": 40.7572395,
    "turf": "Turf6",
    "order": null,
    "full_order": null
  },
  {
    "sosId": "OH0021788893",
    "name": "Jason Brown",
    "age": "39",
    "shortAddress": "181 E 2nd St",
    "precinct": "Man6a",
    "mappableAddress": "181 E 2ND ST Mansfield OH",
    "longitude": -82.5088376,
    "latitude": 40.7572395,
    "turf": "Turf6",
    "order": null,
    "full_order": null
  },
  {
    "sosId": "OH0021773325",
    "name": "Arlonda Hayes",
    "age": "39",
    "shortAddress": "179 E 2nd St",
    "precinct": "Man6a",
    "mappableAddress": "179 E 2ND ST Mansfield OH",
    "longitude": -82.5089644,
    "latitude": 40.7572084,
    "turf": "Turf6",
    "order": null,
    "full_order": null
  },
  {
    "sosId": "OH0021477219",
    "name": "David Williams",
    "age": "56",
    "shortAddress": "154 E Luther Pl",
    "precinct": "Man6a",
    "mappableAddress": "154 E LUTHER PL Mansfield OH",
    "longitude": -82.5100638,
    "latitude": 40.7576341,
    "turf": "Turf6",
    "order": null,
    "full_order": null
  },
  {
    "sosId": "OH0012704100",
    "name": "Thomas Mathews",
    "age": "73",
    "shortAddress": "129 E 2nd St",
    "precinct": "Man6a",
    "mappableAddress": "129 E 2ND ST Mansfield OH",
    "longitude": -82.5109095,
    "latitude": 40.7573348,
    "turf": "Turf6",
    "order": null,
    "full_order": null
  },
  {
    "sosId": "OH0021406484",
    "name": "Alexis Quinones",
    "age": "37",
    "shortAddress": "142 E 2nd St",
    "precinct": "Man6a",
    "mappableAddress": "142 E 2ND ST Mansfield OH",
    "longitude": -82.510552,
    "latitude": 40.756795,
    "turf": "Turf6",
    "order": null,
    "full_order": null
  },
  {
    "sosId": "OH0022674972",
    "name": "Chekiah Washington",
    "age": "42",
    "shortAddress": "154 E 2nd St",
    "precinct": "Man6a",
    "mappableAddress": "154 E 2ND ST Mansfield OH",
    "longitude": -82.5099687,
    "latitude": 40.7569883,
    "turf": "Turf6",
    "order": null,
    "full_order": null
  },
  {
    "sosId": "OH0012703655",
    "name": "Carlie Mahaffey",
    "age": "218",
    "shortAddress": "184 E 2nd St",
    "precinct": "Man6a",
    "mappableAddress": "184 E 2ND ST Mansfield OH",
    "longitude": -82.5089508,
    "latitude": 40.7568458,
    "turf": "Turf6",
    "order": null,
    "full_order": null
  },
  {
    "sosId": "OH0012669592",
    "name": "Archie Jones",
    "age": "49",
    "shortAddress": "200 E 2nd St",
    "precinct": "Man6a",
    "mappableAddress": "200 E 2ND ST Mansfield OH",
    "longitude": -82.5084147,
    "latitude": 40.7568577,
    "turf": "Turf6",
    "order": null,
    "full_order": null
  },
  {
    "sosId": "OH0012668931",
    "name": "Blair Rankin",
    "age": "37",
    "shortAddress": "54 S Foster St",
    "precinct": "Man6a",
    "mappableAddress": "54 S FOSTER ST Mansfield OH",
    "longitude": -82.5085025,
    "latitude": 40.7567159,
    "turf": "Turf6",
    "order": null,
    "full_order": null
  },
  {
    "sosId": "OH0023234298",
    "name": "Alyssa Coleman",
    "age": "20",
    "shortAddress": "54 S Foster St",
    "precinct": "Man6a",
    "mappableAddress": "54 S FOSTER ST Mansfield OH",
    "longitude": -82.5085025,
    "latitude": 40.7567159,
    "turf": "Turf6",
    "order": null,
    "full_order": null
  },
  {
    "sosId": "OH0022639190",
    "name": "Dontez Wagner",
    "age": "26",
    "shortAddress": "74 S Foster St",
    "precinct": "Man6a",
    "mappableAddress": "74 S FOSTER ST Mansfield OH",
    "longitude": -82.508457,
    "latitude": 40.7561913,
    "turf": "Turf6",
    "order": null,
    "full_order": null
  },
  {
    "sosId": "OH0012703696",
    "name": "Carrie Davis",
    "age": "81",
    "shortAddress": "207 E 1st St",
    "precinct": "Man6a",
    "mappableAddress": "207 E 1st ST Mansfield OH",
    "longitude": -82.508457,
    "latitude": 40.7559945,
    "turf": "Turf6",
    "order": null,
    "full_order": null
  },
  {
    "sosId": "OH0019606341",
    "name": "Bobby Hines",
    "age": "27",
    "shortAddress": "207 E 1st St",
    "precinct": "Man6a",
    "mappableAddress": "207 E 1st ST Mansfield OH",
    "longitude": -82.508457,
    "latitude": 40.7559945,
    "turf": "Turf6",
    "order": null,
    "full_order": null
  },
  {
    "sosId": "OH0019879277",
    "name": "Charles Adkins Davis",
    "age": "29",
    "shortAddress": "207 E 1st St",
    "precinct": "Man6a",
    "mappableAddress": "207 E 1st ST Mansfield OH",
    "longitude": -82.508457,
    "latitude": 40.7559945,
    "turf": "Turf6",
    "order": null,
    "full_order": null
  },
  {
    "sosId": "OH0018527989",
    "name": "Charles Davis",
    "age": "53",
    "shortAddress": "194 E 1st St",
    "precinct": "Man6a",
    "mappableAddress": "194 E 1st ST Mansfield OH",
    "longitude": -82.5089644,
    "latitude": 40.7556338,
    "turf": "Turf6",
    "order": null,
    "full_order": null
  },
  {
    "sosId": "OH0012703973",
    "name": "Ruth Lykins",
    "age": "45",
    "shortAddress": "90 S Foster St",
    "precinct": "Man6a",
    "mappableAddress": "90 S FOSTER ST Mansfield OH",
    "longitude": -82.508564,
    "latitude": 40.755706,
    "turf": "Turf6",
    "order": null,
    "full_order": null
  },
  {
    "sosId": "OH0012703773",
    "name": "Ahmad Rashad",
    "age": "70",
    "shortAddress": "102 S Foster St",
    "precinct": "Man6a",
    "mappableAddress": "102 S FOSTER ST Mansfield OH",
    "longitude": -82.5085416,
    "latitude": 40.7553702,
    "turf": "Turf6",
    "order": null,
    "full_order": null
  },
  {
    "sosId": "OH0012677978",
    "name": "Jamie Fry",
    "age": "40",
    "shortAddress": "106 S Foster St",
    "precinct": "Man6a",
    "mappableAddress": "106 S FOSTER ST Mansfield OH",
    "longitude": -82.5085838,
    "latitude": 40.7552155,
    "turf": "Turf6",
    "order": null,
    "full_order": null
  },
  {
    "sosId": "OH0012689321",
    "name": "John Fry",
    "age": "51",
    "shortAddress": "106 S Foster St",
    "precinct": "Man6a",
    "mappableAddress": "106 S FOSTER ST Mansfield OH",
    "longitude": -82.5085838,
    "latitude": 40.7552155,
    "turf": "Turf6",
    "order": null,
    "full_order": null
  },
  {
    "sosId": "OH0012667660",
    "name": "Charles Mitchell",
    "age": "65",
    "shortAddress": "110 S Foster St",
    "precinct": "Man6a",
    "mappableAddress": "110 S FOSTER ST Mansfield OH",
    "longitude": -82.5085838,
    "latitude": 40.7550974,
    "turf": "Turf6",
    "order": null,
    "full_order": null
  },
  {
    "sosId": "OH0012703767",
    "name": "Howard Eubanks",
    "age": "63",
    "shortAddress": "114 S Foster St",
    "precinct": "Man6a",
    "mappableAddress": "114 S FOSTER ST Mansfield OH",
    "longitude": -82.5085416,
    "latitude": 40.7550159,
    "turf": "Turf6",
    "order": null,
    "full_order": null
  },
  {
    "sosId": "OH0018582997",
    "name": "Simarrah Jackson",
    "age": "30",
    "shortAddress": "118 S Foster St",
    "precinct": "Man6a",
    "mappableAddress": "118 S FOSTER ST Mansfield OH",
    "longitude": -82.5086261,
    "latitude": 40.7549033,
    "turf": "Turf6",
    "order": null,
    "full_order": null
  },
  {
    "sosId": "OH0023234376",
    "name": "Foster Nall",
    "age": "27",
    "shortAddress": "118 S Foster St",
    "precinct": "Man6a",
    "mappableAddress": "118 S FOSTER ST Mansfield OH",
    "longitude": -82.5086261,
    "latitude": 40.7549033,
    "turf": "Turf6",
    "order": null,
    "full_order": null
  },
  {
    "sosId": "OH0023155846",
    "name": "Davida Brent",
    "age": "34",
    "shortAddress": "120 S Foster St",
    "precinct": "Man6a",
    "mappableAddress": "120 S FOSTER ST Mansfield OH",
    "longitude": -82.5086261,
    "latitude": 40.7547458,
    "turf": "Turf6",
    "order": 23,
    "full_order": null
  },
  {
    "sosId": "OH0012665577",
    "name": "Kisha Harvey",
    "age": "39",
    "shortAddress": "128 S Foster St",
    "precinct": "Man6a",
    "mappableAddress": "128 S FOSTER ST Mansfield OH",
    "longitude": -82.5086261,
    "latitude": 40.7546278,
    "turf": "Turf6",
    "order": 24,
    "full_order": null
  },
  {
    "sosId": "OH0012665670",
    "name": "Davin Harvey",
    "age": "40",
    "shortAddress": "128 S Foster St",
    "precinct": "Man6a",
    "mappableAddress": "128 S FOSTER ST Mansfield OH",
    "longitude": -82.5086261,
    "latitude": 40.7546278,
    "turf": "Turf6",
    "order": 24,
    "full_order": null
  },
  {
    "sosId": "OH0023103556",
    "name": "Destiny Harvey",
    "age": "21",
    "shortAddress": "128 S Foster St",
    "precinct": "Man6a",
    "mappableAddress": "128 S FOSTER ST Mansfield OH",
    "longitude": -82.5086261,
    "latitude": 40.7546278,
    "turf": "Turf6",
    "order": 24,
    "full_order": null
  },
  {
    "sosId": "OH0023155942",
    "name": "Gregory Longood",
    "age": "41",
    "shortAddress": "128 S Foster St",
    "precinct": "Man6a",
    "mappableAddress": "128 S FOSTER ST Mansfield OH",
    "longitude": -82.5086261,
    "latitude": 40.7546278,
    "turf": "Turf6",
    "order": 24,
    "full_order": null
  },
  {
    "sosId": "OH0012703953",
    "name": "Maggie Melton",
    "age": "73",
    "shortAddress": "134 S Foster St",
    "precinct": "Man6a",
    "mappableAddress": "134 S FOSTER ST Mansfield OH",
    "longitude": -82.5086261,
    "latitude": 40.7545097,
    "turf": "Turf6",
    "order": 25,
    "full_order": null
  },
  {
    "sosId": "OH0012703627",
    "name": "Odessa Oneal",
    "age": "81",
    "shortAddress": "207 E Arch St",
    "precinct": "Man6a",
    "mappableAddress": "207 E ARCH ST Mansfield OH",
    "longitude": -82.5085416,
    "latitude": 40.7542286,
    "turf": "Turf6",
    "order": 26,
    "full_order": null
  },
  {
    "sosId": "OH0020181498",
    "name": "Jason Oneal",
    "age": "36",
    "shortAddress": "207 E Arch St",
    "precinct": "Man6a",
    "mappableAddress": "207 E ARCH ST Mansfield OH",
    "longitude": -82.5085416,
    "latitude": 40.7542286,
    "turf": "Turf6",
    "order": 26,
    "full_order": null
  },
  {
    "sosId": "OH0020974907",
    "name": "Jamarkus Oneal",
    "age": "26",
    "shortAddress": "207 E Arch St",
    "precinct": "Man6a",
    "mappableAddress": "207 E ARCH ST Mansfield OH",
    "longitude": -82.5085416,
    "latitude": 40.7542286,
    "turf": "Turf6",
    "order": 26,
    "full_order": null
  },
  {
    "sosId": "OH0012704220",
    "name": "Tarry Taylor",
    "age": "36",
    "shortAddress": "201 E Arch St",
    "precinct": "Man6a",
    "mappableAddress": "201 E ARCH ST Mansfield OH",
    "longitude": -82.508753,
    "latitude": 40.7542424,
    "turf": "Turf6",
    "order": 27,
    "full_order": null
  },
  {
    "sosId": "OH0012673201",
    "name": "Kevin Danals",
    "age": "35",
    "shortAddress": "197 E Arch St",
    "precinct": "Man6a",
    "mappableAddress": "197 E ARCH ST Mansfield OH",
    "longitude": -82.5088798,
    "latitude": 40.7542506,
    "turf": "Turf6",
    "order": 28,
    "full_order": null
  },
  {
    "sosId": "OH0023247849",
    "name": "Josh Ball",
    "age": "37",
    "shortAddress": "197 E Arch St",
    "precinct": "Man6a",
    "mappableAddress": "197 E ARCH ST Mansfield OH",
    "longitude": -82.5088798,
    "latitude": 40.7542506,
    "turf": "Turf6",
    "order": 28,
    "full_order": null
  },
  {
    "sosId": "OH0019637909",
    "name": "Darrell Rinehart",
    "age": "58",
    "shortAddress": "191 E Arch St",
    "precinct": "Man6a",
    "mappableAddress": "191 E ARCH ST Mansfield OH",
    "longitude": -82.509025,
    "latitude": 40.754317,
    "turf": "Turf6",
    "order": 29,
    "full_order": null
  },
  {
    "sosId": "OH0012666231",
    "name": "Jacqueline Beard",
    "age": "49",
    "shortAddress": "137 Hedges St",
    "precinct": "Man6a",
    "mappableAddress": "137 HEDGES ST Mansfield OH",
    "longitude": -82.5096833,
    "latitude": 40.7544603,
    "turf": "Turf6",
    "order": 30,
    "full_order": null
  },
  {
    "sosId": "OH0012703683",
    "name": "Wayne Lindsay",
    "age": "69",
    "shortAddress": "137 Hedges St",
    "precinct": "Man6a",
    "mappableAddress": "137 HEDGES ST Mansfield OH",
    "longitude": -82.5096833,
    "latitude": 40.7544603,
    "turf": "Turf6",
    "order": 30,
    "full_order": null
  },
  {
    "sosId": "OH0012703462",
    "name": "Stephen Lozier",
    "age": "36",
    "shortAddress": "135 Hedges St",
    "precinct": "Man6a",
    "mappableAddress": "135 HEDGES ST Mansfield OH",
    "longitude": -82.5096833,
    "latitude": 40.7545784,
    "turf": "Turf6",
    "order": 31,
    "full_order": null
  },
  {
    "sosId": "OH0021152701",
    "name": "Chelsea Lozier",
    "age": "26",
    "shortAddress": "135 Hedges St",
    "precinct": "Man6a",
    "mappableAddress": "135 HEDGES ST Mansfield OH",
    "longitude": -82.5096833,
    "latitude": 40.7545784,
    "turf": "Turf6",
    "order": 31,
    "full_order": null
  },
  {
    "sosId": "OH0012667686",
    "name": "James Powell",
    "age": "60",
    "shortAddress": "125 Hedges St",
    "precinct": "Man6a",
    "mappableAddress": "125 HEDGES ST Mansfield OH",
    "longitude": -82.509641,
    "latitude": 40.7547725,
    "turf": "Turf6",
    "order": 32,
    "full_order": null
  },
  {
    "sosId": "OH0024187673",
    "name": "Alfred Reese",
    "age": "35",
    "shortAddress": "119 Hedges St",
    "precinct": "Man6a",
    "mappableAddress": "119 HEDGES ST Mansfield OH",
    "longitude": -82.509641,
    "latitude": 40.7549299,
    "turf": "Turf6",
    "order": 33,
    "full_order": null
  },
  {
    "sosId": "OH0021880478",
    "name": "Marcee Nettles",
    "age": "25",
    "shortAddress": "119 Hedges St",
    "precinct": "Man6a",
    "mappableAddress": "119 HEDGES ST Mansfield OH",
    "longitude": -82.509641,
    "latitude": 40.7549299,
    "turf": "Turf6",
    "order": 33,
    "full_order": null
  },
  {
    "sosId": "OH0023155872",
    "name": "Janoll Minard",
    "age": "26",
    "shortAddress": "119 Hedges St",
    "precinct": "Man6a",
    "mappableAddress": "119 HEDGES ST Mansfield OH",
    "longitude": -82.509641,
    "latitude": 40.7549299,
    "turf": "Turf6",
    "order": 33,
    "full_order": null
  },
  {
    "sosId": "OH0012662757",
    "name": "Antonia Williams",
    "age": "32",
    "shortAddress": "107 Hedges St",
    "precinct": "Man6a",
    "mappableAddress": "107 HEDGES ST Mansfield OH",
    "longitude": -82.5095987,
    "latitude": 40.7552815,
    "turf": "Turf6",
    "order": 35,
    "full_order": null
  },
  {
    "sosId": "OH0012701416",
    "name": "Charles Williams",
    "age": "32",
    "shortAddress": "107 Hedges St",
    "precinct": "Man6a",
    "mappableAddress": "107 HEDGES ST Mansfield OH",
    "longitude": -82.5095987,
    "latitude": 40.7552815,
    "turf": "Turf6",
    "order": 35,
    "full_order": null
  },
  {
    "sosId": "OH0021193146",
    "name": "Andrew Dyke",
    "age": "39",
    "shortAddress": "107 Hedges St",
    "precinct": "Man6a",
    "mappableAddress": "107 HEDGES ST Mansfield OH",
    "longitude": -82.5095987,
    "latitude": 40.7552815,
    "turf": "Turf6",
    "order": 35,
    "full_order": null
  },
  {
    "sosId": "OH0018986520",
    "name": "Karlan Thompson",
    "age": "29",
    "shortAddress": "101 Hedges St",
    "precinct": "Man6a",
    "mappableAddress": "101 HEDGES ST Mansfield OH",
    "longitude": -82.509641,
    "latitude": 40.7554023,
    "turf": "Turf6",
    "order": 36,
    "full_order": null
  },
  {
    "sosId": "OH0012704222",
    "name": "Derrick Boyd",
    "age": "32",
    "shortAddress": "97 Hedges St",
    "precinct": "Man6a",
    "mappableAddress": "97 HEDGES ST Mansfield OH",
    "longitude": -82.509641,
    "latitude": 40.755481,
    "turf": "Turf6",
    "order": 37,
    "full_order": null
  },
  {
    "sosId": "OH0019054204",
    "name": "Joey Williams",
    "age": "34",
    "shortAddress": "97 Hedges St",
    "precinct": "Man6a",
    "mappableAddress": "97 HEDGES ST Mansfield OH",
    "longitude": -82.509641,
    "latitude": 40.755481,
    "turf": "Turf6",
    "order": 37,
    "full_order": null
  },
  {
    "sosId": "OH0020180859",
    "name": "Amanda Williams",
    "age": "40",
    "shortAddress": "97 Hedges St",
    "precinct": "Man6a",
    "mappableAddress": "97 HEDGES ST Mansfield OH",
    "longitude": -82.509641,
    "latitude": 40.755481,
    "turf": "Turf6",
    "order": 37,
    "full_order": null
  },
  {
    "sosId": "OH0012700563",
    "name": "Donna Comella",
    "age": "62",
    "shortAddress": "102 Hedges St",
    "precinct": "Man6a",
    "mappableAddress": "102 HEDGES ST Mansfield OH",
    "longitude": -82.5101061,
    "latitude": 40.7553932,
    "turf": "Turf6",
    "order": 38,
    "full_order": null
  },
  {
    "sosId": "OH0012694977",
    "name": "Melissa Hatten",
    "age": "42",
    "shortAddress": "106 Hedges St",
    "precinct": "Man6a",
    "mappableAddress": "106 HEDGES ST Mansfield OH",
    "longitude": -82.5101907,
    "latitude": 40.7552806,
    "turf": "Turf6",
    "order": 39,
    "full_order": null
  },
  {
    "sosId": "OH0023140390",
    "name": "Brian Lunsford",
    "age": "52",
    "shortAddress": "106 Hedges St",
    "precinct": "Man6a",
    "mappableAddress": "106 HEDGES ST Mansfield OH",
    "longitude": -82.5101907,
    "latitude": 40.7552806,
    "turf": "Turf6",
    "order": 39,
    "full_order": null
  },
  {
    "sosId": "OH0021372382",
    "name": "Kimberly Mckenzie",
    "age": "43",
    "shortAddress": "114 Hedges St",
    "precinct": "Man6a",
    "mappableAddress": "114 HEDGES ST Mansfield OH",
    "longitude": -82.5101484,
    "latitude": 40.755081,
    "turf": "Turf6",
    "order": 40,
    "full_order": null
  },
  {
    "sosId": "OH0021997917",
    "name": "Randall Misner",
    "age": "32",
    "shortAddress": "114 Hedges St",
    "precinct": "Man6a",
    "mappableAddress": "114 HEDGES ST Mansfield OH",
    "longitude": -82.5101484,
    "latitude": 40.755081,
    "turf": "Turf6",
    "order": 40,
    "full_order": null
  },
  {
    "sosId": "OH0023393921",
    "name": "Lisa Sewell",
    "age": "52",
    "shortAddress": "114 Hedges St",
    "precinct": "Man6a",
    "mappableAddress": "114 HEDGES ST Mansfield OH",
    "longitude": -82.5101484,
    "latitude": 40.755081,
    "turf": "Turf6",
    "order": 40,
    "full_order": null
  },
  {
    "sosId": "OH0023667798",
    "name": "W J Wortham",
    "age": "57",
    "shortAddress": "132 Hedges St",
    "precinct": "Man6a",
    "mappableAddress": "132 HEDGES ST Mansfield OH",
    "longitude": -82.5101484,
    "latitude": 40.7546086,
    "turf": "Turf6",
    "order": 41,
    "full_order": null
  },
  {
    "sosId": "OH0012701307",
    "name": "Lisa Cole",
    "age": "34",
    "shortAddress": "136 Hedges St",
    "precinct": "Man6a",
    "mappableAddress": "136 HEDGES ST Mansfield OH",
    "longitude": -82.5101907,
    "latitude": 40.7544933,
    "turf": "Turf6",
    "order": 41,
    "full_order": null
  },
  {
    "sosId": "OH0012703737",
    "name": "Hubert Bruce",
    "age": "63",
    "shortAddress": "135 E Arch St",
    "precinct": "Man6a",
    "mappableAddress": "135 E ARCH ST Mansfield OH",
    "longitude": -82.510945,
    "latitude": 40.754373,
    "turf": "Turf6",
    "order": 42,
    "full_order": null
  },
  {
    "sosId": "OH0012668943",
    "name": "Sandra Strouse",
    "age": "48",
    "shortAddress": "131 S Willis Ave",
    "precinct": "Man6a",
    "mappableAddress": "131 S WILLIS AVE Mansfield OH",
    "longitude": -82.5110364,
    "latitude": 40.7546664,
    "turf": "Turf6",
    "order": 43,
    "full_order": null
  },
  {
    "sosId": "OH0020138511",
    "name": "John Rock",
    "age": "57",
    "shortAddress": "131 S Willis Ave",
    "precinct": "Man6a",
    "mappableAddress": "131 S WILLIS AVE Mansfield OH",
    "longitude": -82.5110364,
    "latitude": 40.7546664,
    "turf": "Turf6",
    "order": 43,
    "full_order": null
  },
  {
    "sosId": "OH0016344607",
    "name": "John West",
    "age": "71",
    "shortAddress": "127 S Willis Ave",
    "precinct": "Man6a",
    "mappableAddress": "127 S WILLIS AVE Mansfield OH",
    "longitude": -82.511047,
    "latitude": 40.7547556,
    "turf": "Turf6",
    "order": 44,
    "full_order": null
  },
  {
    "sosId": "OH0021040067",
    "name": "Tonya Becker",
    "age": "43",
    "shortAddress": "127 S Willis Ave",
    "precinct": "Man6a",
    "mappableAddress": "127 S WILLIS AVE Mansfield OH",
    "longitude": -82.511047,
    "latitude": 40.7547556,
    "turf": "Turf6",
    "order": 44,
    "full_order": null
  },
  {
    "sosId": "OH0024210688",
    "name": "Holly Slimak Denney",
    "age": "46",
    "shortAddress": "121 S Willis Ave",
    "precinct": "Man6a",
    "mappableAddress": "121 S WILLIS AVE Mansfield OH",
    "longitude": -82.511047,
    "latitude": 40.7549721,
    "turf": "Turf6",
    "order": 45,
    "full_order": null
  },
  {
    "sosId": "OH0012703992",
    "name": "Raymond Mercker",
    "age": "48",
    "shortAddress": "145 E 1st St",
    "precinct": "Man6a",
    "mappableAddress": "145 E 1st ST Mansfield OH",
    "longitude": -82.5108012,
    "latitude": 40.7560879,
    "turf": "Turf6",
    "order": 46,
    "full_order": null
  },
  {
    "sosId": "OH0012669257",
    "name": "Rickie Brooks",
    "age": "63",
    "shortAddress": "144 E 1st St",
    "precinct": "Man6a",
    "mappableAddress": "144 E 1st ST Mansfield OH",
    "longitude": -82.5107404,
    "latitude": 40.7557493,
    "turf": "Turf6",
    "order": 47,
    "full_order": null
  },
  {
    "sosId": "OH0021266475",
    "name": "Chelsey Edwards",
    "age": "25",
    "shortAddress": "144 E 1st St",
    "precinct": "Man6a",
    "mappableAddress": "144 E 1st ST Mansfield OH",
    "longitude": -82.5107404,
    "latitude": 40.7557493,
    "turf": "Turf6",
    "order": 47,
    "full_order": null
  },
  {
    "sosId": "OH0023245718",
    "name": "Michelle Edwards",
    "age": "21",
    "shortAddress": "144 E 1st St",
    "precinct": "Man6a",
    "mappableAddress": "144 E 1st ST Mansfield OH",
    "longitude": -82.5107404,
    "latitude": 40.7557493,
    "turf": "Turf6",
    "order": 47,
    "full_order": null
  },
  {
    "sosId": "OH0024315344",
    "name": "Thomas Presser",
    "age": "44",
    "shortAddress": "144 E 1st St",
    "precinct": "Man6a",
    "mappableAddress": "144 E 1st ST Mansfield OH",
    "longitude": -82.5107404,
    "latitude": 40.7557493,
    "turf": "Turf6",
    "order": 47,
    "full_order": null
  },
  {
    "sosId": "OH0015623886",
    "name": "Ebony Hunter",
    "age": "32",
    "shortAddress": "146 E 1st St",
    "precinct": "Man6a",
    "mappableAddress": "146 E 1st ST Mansfield OH",
    "longitude": -82.5106135,
    "latitude": 40.7557411,
    "turf": "Turf6",
    "order": 48,
    "full_order": null
  },
  {
    "sosId": "OH0012703798",
    "name": "William West",
    "age": "45",
    "shortAddress": "104 S Glenn Ave",
    "precinct": "Man6a",
    "mappableAddress": "104 S GLENN AVE Mansfield OH",
    "longitude": -82.5107404,
    "latitude": 40.755277,
    "turf": "Turf6",
    "order": 48.2,
    "full_order": null
  },
  {
    "sosId": "OH0023169208",
    "name": "Austin Roberts",
    "age": "20",
    "shortAddress": "104 S Glenn Ave",
    "precinct": "Man6a",
    "mappableAddress": "104 S GLENN AVE Mansfield OH",
    "longitude": -82.5107404,
    "latitude": 40.755277,
    "turf": "Turf6",
    "order": 48.2,
    "full_order": null
  },
  {
    "sosId": "OH0012703694",
    "name": "Kim Randall",
    "age": "60",
    "shortAddress": "110 S Glenn Ave",
    "precinct": "Man6a",
    "mappableAddress": "110 S GLENN AVE Mansfield OH",
    "longitude": -82.5107404,
    "latitude": 40.7550014,
    "turf": "Turf6",
    "order": 48.4,
    "full_order": null
  },
  {
    "sosId": "OH0023170589",
    "name": "James Gray",
    "age": "48",
    "shortAddress": "110 S Glenn Ave",
    "precinct": "Man6a",
    "mappableAddress": "110 S GLENN AVE Mansfield OH",
    "longitude": -82.5107404,
    "latitude": 40.7550014,
    "turf": "Turf6",
    "order": 48.4,
    "full_order": null
  },
  {
    "sosId": "OH0024183935",
    "name": "William Glenn",
    "age": "60",
    "shortAddress": "110 S Glenn Ave",
    "precinct": "Man6a",
    "mappableAddress": "110 S GLENN AVE Mansfield OH",
    "longitude": -82.5107404,
    "latitude": 40.7550014,
    "turf": "Turf6",
    "order": 48.4,
    "full_order": null
  },
  {
    "sosId": "OH0024298986",
    "name": "Stacy Randall",
    "age": "30",
    "shortAddress": "110 S Glenn Ave",
    "precinct": "Man6a",
    "mappableAddress": "110 S GLENN AVE Mansfield OH",
    "longitude": -82.5107404,
    "latitude": 40.7550014,
    "turf": "Turf6",
    "order": 48.4,
    "full_order": null
  },
  {
    "sosId": "OH0012703792",
    "name": "Kahoma Grayson",
    "age": "46",
    "shortAddress": "105 S Glenn Ave",
    "precinct": "Man6a",
    "mappableAddress": "105 S GLENN AVE Mansfield OH",
    "longitude": -82.5104444,
    "latitude": 40.7552183,
    "turf": "Turf6",
    "order": 48.6,
    "full_order": null
  },
  {
    "sosId": "OH0012703693",
    "name": "Theresa Hunter",
    "age": "73",
    "shortAddress": "152 E 1st St",
    "precinct": "Man6a",
    "mappableAddress": "152 E 1st ST Mansfield OH",
    "longitude": -82.5104021,
    "latitude": 40.7557667,
    "turf": "Turf6",
    "order": 49,
    "full_order": null
  },
  {
    "sosId": "OH0012703793",
    "name": "Robert Hunter",
    "age": "72",
    "shortAddress": "152 E 1st St",
    "precinct": "Man6a",
    "mappableAddress": "152 E 1st ST Mansfield OH",
    "longitude": -82.5104021,
    "latitude": 40.7557667,
    "turf": "Turf6",
    "order": 49,
    "full_order": null
  },
  {
    "sosId": "OH0012704200",
    "name": "Alicia Hunter",
    "age": "32",
    "shortAddress": "152 E 1st St",
    "precinct": "Man6a",
    "mappableAddress": "152 E 1st ST Mansfield OH",
    "longitude": -82.5104021,
    "latitude": 40.7557667,
    "turf": "Turf6",
    "order": 49,
    "full_order": null
  },
  {
    "sosId": "OH0012703785",
    "name": "Dwana Washington",
    "age": "67",
    "shortAddress": "154 E 1st St",
    "precinct": "Man6a",
    "mappableAddress": "154 E 1st ST Mansfield OH",
    "longitude": -82.5102541,
    "latitude": 40.7557767,
    "turf": "Turf6",
    "order": 50,
    "full_order": null
  },
  {
    "sosId": "OH0012704196",
    "name": "Meaghan Toler",
    "age": "32",
    "shortAddress": "154 E 1st St",
    "precinct": "Man6a",
    "mappableAddress": "154 E 1st ST Mansfield OH",
    "longitude": -82.5102541,
    "latitude": 40.7557767,
    "turf": "Turf6",
    "order": 50,
    "full_order": null
  },
  {
    "sosId": "OH0021119486",
    "name": "Shaquille Jefferson",
    "age": "26",
    "shortAddress": "154 E 1st St",
    "precinct": "Man6a",
    "mappableAddress": "154 E 1st ST Mansfield OH",
    "longitude": -82.5102541,
    "latitude": 40.7557767,
    "turf": "Turf6",
    "order": 50,
    "full_order": null
  },
  {
    "sosId": "OH0019154381",
    "name": "Whitney Cottrell",
    "age": "30",
    "shortAddress": "159 E 1st St",
    "precinct": "Man6a",
    "mappableAddress": "159 E 1st ST Mansfield OH",
    "longitude": -82.5101484,
    "latitude": 40.7560651,
    "turf": "Turf6",
    "order": 50.5,
    "full_order": null
  },
  {
    "sosId": "OH0012698750",
    "name": "Christine Potter",
    "age": "36",
    "shortAddress": "74 Hedges St",
    "precinct": "Man6a",
    "mappableAddress": "74 HEDGES ST Mansfield OH",
    "longitude": -82.510109,
    "latitude": 40.756317,
    "turf": "Turf6",
    "order": 51,
    "full_order": null
  },
  {
    "sosId": "OH0012704207",
    "name": "Adam Curry",
    "age": "32",
    "shortAddress": "74 Hedges St",
    "precinct": "Man6a",
    "mappableAddress": "74 HEDGES ST Mansfield OH",
    "longitude": -82.510109,
    "latitude": 40.756317,
    "turf": "Turf6",
    "order": 51,
    "full_order": null
  },
  {
    "sosId": "OH0014064231",
    "name": "Terry Stokes",
    "age": "32",
    "shortAddress": "74 Hedges St",
    "precinct": "Man6a",
    "mappableAddress": "74 HEDGES ST Mansfield OH",
    "longitude": -82.510109,
    "latitude": 40.756317,
    "turf": "Turf6",
    "order": 51,
    "full_order": null
  },
  {
    "sosId": "OH0022156504",
    "name": "Kiera Taylor",
    "age": "31",
    "shortAddress": "74 Hedges St",
    "precinct": "Man6a",
    "mappableAddress": "74 HEDGES ST Mansfield OH",
    "longitude": -82.510109,
    "latitude": 40.756317,
    "turf": "Turf6",
    "order": 51,
    "full_order": null
  },
  {
    "sosId": "OH0018868170",
    "name": "Barbara Bentley",
    "age": "30",
    "shortAddress": "179 E 1st St",
    "precinct": "Man6a",
    "mappableAddress": "179 E 1st ST Mansfield OH",
    "longitude": -82.5093824,
    "latitude": 40.7563249,
    "turf": "Turf6",
    "order": 52,
    "full_order": null
  },
  {
    "sosId": "OH0020138535",
    "name": "Harry Brooks",
    "age": "52",
    "shortAddress": "179 E 1st St",
    "precinct": "Man6a",
    "mappableAddress": "179 E 1st ST Mansfield OH",
    "longitude": -82.5093824,
    "latitude": 40.7563249,
    "turf": "Turf6",
    "order": 52,
    "full_order": null
  },
  {
    "sosId": "OH0020175175",
    "name": "Hakeem Bentley",
    "age": "30",
    "shortAddress": "179 E 1st St",
    "precinct": "Man6a",
    "mappableAddress": "179 E 1st ST Mansfield OH",
    "longitude": -82.5093824,
    "latitude": 40.7563249,
    "turf": "Turf6",
    "order": 52,
    "full_order": null
  },
  {
    "sosId": "OH0024272159",
    "name": "Joseph Kasler",
    "age": "38",
    "shortAddress": "179 E 1st St",
    "precinct": "Man6a",
    "mappableAddress": "179 E 1st ST Mansfield OH",
    "longitude": -82.5093824,
    "latitude": 40.7563249,
    "turf": "Turf6",
    "order": 52,
    "full_order": null
  },
  {
    "sosId": "OH0022046540",
    "name": "Dalton Mitchell",
    "age": "25",
    "shortAddress": "53 Hedges St",
    "precinct": "Man6a",
    "mappableAddress": "53 HEDGES ST Mansfield OH",
    "longitude": -82.5095776,
    "latitude": 40.7566775,
    "turf": "Turf6",
    "order": 54,
    "full_order": null
  },
  {
    "sosId": "OH0021261899",
    "name": "James Fields",
    "age": "66",
    "shortAddress": "60 Hedges St",
    "precinct": "Man6a",
    "mappableAddress": "60 HEDGES ST Mansfield OH",
    "longitude": -82.5100215,
    "latitude": 40.7565686,
    "turf": "Turf6",
    "order": 55,
    "full_order": null
  },
  {
    "sosId": "OH0021261924",
    "name": "Lula Gadison",
    "age": "68",
    "shortAddress": "60 Hedges St",
    "precinct": "Man6a",
    "mappableAddress": "60 HEDGES ST Mansfield OH",
    "longitude": -82.5100215,
    "latitude": 40.7565686,
    "turf": "Turf6",
    "order": 55,
    "full_order": null
  }
]