[
  {
    "sosId": "OH0023909873",
    "name": "Bob Hurley",
    "age": "59",
    "shortAddress": "1 S Park St",
    "precinct": "Man6a",
    "mappableAddress": "1 S PARK ST Mansfield OH",
    "longitude": -82.5155125,
    "latitude": 40.7581396,
    "turf": "Turf4",
    "order": 0,
    "full_order": 0
  },
  {
    "sosId": "OH0024455969",
    "name": "Teaaurrie Hunter",
    "age": "19",
    "shortAddress": "47 W 2nd St",
    "precinct": "Man6a",
    "mappableAddress": "47 W 2ND ST Mansfield OH",
    "longitude": -82.5151379,
    "latitude": 40.757147,
    "turf": "Turf4",
    "order": 0,
    "full_order": 0.002
  },
  {
    "sosId": "OH0012669172",
    "name": "Aurelio Diaz",
    "age": "42",
    "shortAddress": "12 1/2 S Park St",
    "precinct": "Man6a",
    "mappableAddress": "12 S PARK ST Mansfield OH",
    "longitude": -82.5151063,
    "latitude": 40.7578495,
    "turf": "Turf4",
    "order": 1,
    "full_order": 1
  },
  {
    "sosId": "OH0023049379",
    "name": "Carlos Pellot",
    "age": "40",
    "shortAddress": "14 S Park St",
    "precinct": "Man6a",
    "mappableAddress": "14 S PARK ST Mansfield OH",
    "longitude": -82.5150644,
    "latitude": 40.757862,
    "turf": "Turf4",
    "order": 2,
    "full_order": 2.004
  },
  {
    "sosId": "OH0012663869",
    "name": "Jeffrey Boyd",
    "age": "46",
    "shortAddress": "14 1/2 S Park St",
    "precinct": "Man6a",
    "mappableAddress": "14 S PARK ST Mansfield OH",
    "longitude": -82.5150644,
    "latitude": 40.757862,
    "turf": "Turf4",
    "order": 2.5,
    "full_order": 2.5
  },
  {
    "sosId": "OH0015851751",
    "name": "Natalie Bond",
    "age": "34",
    "shortAddress": "14 1/2 S Park St",
    "precinct": "Man6a",
    "mappableAddress": "14 S PARK ST Mansfield OH",
    "longitude": -82.5150644,
    "latitude": 40.757862,
    "turf": "Turf4",
    "order": 2.5,
    "full_order": 2.501
  },
  {
    "sosId": "OH0024184089",
    "name": "Marsalis Boyd",
    "age": "21",
    "shortAddress": "14 1/2 S Park St",
    "precinct": "Man6a",
    "mappableAddress": "14 S PARK ST Mansfield OH",
    "longitude": -82.5150644,
    "latitude": 40.757862,
    "turf": "Turf4",
    "order": 2.5,
    "full_order": 2.502
  },
  {
    "sosId": "OH0020930589",
    "name": "Tony Mascazzini",
    "age": "25",
    "shortAddress": "16 1/2 S Park St",
    "precinct": "Man6a",
    "mappableAddress": "16 S PARK ST Mansfield OH",
    "longitude": -82.5150175,
    "latitude": 40.7579726,
    "turf": "Turf4",
    "order": 3,
    "full_order": 3
  },
  {
    "sosId": "OH0021628906",
    "name": "Jerry Lang",
    "age": "24",
    "shortAddress": "16 1/2 S Park St",
    "precinct": "Man6a",
    "mappableAddress": "16 S PARK ST Mansfield OH",
    "longitude": -82.5150175,
    "latitude": 40.7579726,
    "turf": "Turf4",
    "order": 3,
    "full_order": 3.001
  },
  {
    "sosId": "OH0022267163",
    "name": "Alexandria Bishop",
    "age": "25",
    "shortAddress": "16 S Park St Apt 1",
    "precinct": "Man6a",
    "mappableAddress": "16 S PARK ST Mansfield OH",
    "longitude": -82.5150175,
    "latitude": 40.7579726,
    "turf": "Turf4",
    "order": 3,
    "full_order": 3.005
  },
  {
    "sosId": "OH0024295312",
    "name": "Deltalee Radulescu",
    "age": "27",
    "shortAddress": "16 1/2 S Park St Apt 2",
    "precinct": "Man6a",
    "mappableAddress": "16 S PARK ST Mansfield OH",
    "longitude": -82.5150175,
    "latitude": 40.7579726,
    "turf": "Turf4",
    "order": 3.5,
    "full_order": 3.503
  },
  {
    "sosId": "OH0012667530",
    "name": "Michael Lacy",
    "age": "54",
    "shortAddress": "18 1/2 S Park St Apt 3",
    "precinct": "Man6a",
    "mappableAddress": "18 S PARK ST Mansfield OH",
    "longitude": -82.5149726,
    "latitude": 40.7578594,
    "turf": "Turf4",
    "order": 4,
    "full_order": 4
  },
  {
    "sosId": "OH0012701771",
    "name": "Zachariah Pocock",
    "age": "40",
    "shortAddress": "18 1/2 S Park St Apt 4",
    "precinct": "Man6a",
    "mappableAddress": "18 S PARK ST Mansfield OH",
    "longitude": -82.5149726,
    "latitude": 40.7578594,
    "turf": "Turf4",
    "order": 4,
    "full_order": 4.002
  },
  {
    "sosId": "OH0012669095",
    "name": "Randy Chamberlain",
    "age": "64",
    "shortAddress": "12 S Main St Apt 4",
    "precinct": "Man6a",
    "mappableAddress": "12 S MAIN ST Mansfield OH",
    "longitude": -82.515966,
    "latitude": 40.758197,
    "turf": "Turf4",
    "order": 5,
    "full_order": 5
  },
  {
    "sosId": "OH0022388369",
    "name": "Scott Balliett",
    "age": "45",
    "shortAddress": "35 Park Ave W",
    "precinct": "Man6a",
    "mappableAddress": "35 PARK AVE W Mansfield OH",
    "longitude": -82.5170009,
    "latitude": 40.758255,
    "turf": "Turf4",
    "order": 6,
    "full_order": 6
  },
  {
    "sosId": "OH0022404989",
    "name": "John Dorsey",
    "age": "54",
    "shortAddress": "30 S Mulberry St Apt 3",
    "precinct": "Man6a",
    "mappableAddress": "30 S MULBERRY ST Mansfield OH",
    "longitude": -82.5183512,
    "latitude": 40.757779,
    "turf": "Turf4",
    "order": 7,
    "full_order": 7
  },
  {
    "sosId": "OH0012668812",
    "name": "Roberto Patino",
    "age": "42",
    "shortAddress": "87 W 2nd St",
    "precinct": "Man6a",
    "mappableAddress": "87 W 2ND ST Mansfield OH",
    "longitude": -82.518796,
    "latitude": 40.757286,
    "turf": "Turf4",
    "order": 7.5,
    "full_order": 7.5
  },
  {
    "sosId": "OH0022528417",
    "name": "Luis Garcia",
    "age": "38",
    "shortAddress": "51 W 2nd St",
    "precinct": "Man6a",
    "mappableAddress": "51 W 2ND ST Mansfield OH",
    "longitude": -82.5176857,
    "latitude": 40.7572094,
    "turf": "Turf4",
    "order": 8,
    "full_order": 8
  },
  {
    "sosId": "OH0012667536",
    "name": "Victoria Hoefler",
    "age": "55",
    "shortAddress": "53 W 2nd St",
    "precinct": "Man6a",
    "mappableAddress": "53 W 2ND ST Mansfield OH",
    "longitude": -82.517736,
    "latitude": 40.7572176,
    "turf": "Turf4",
    "order": 9,
    "full_order": 9
  },
  {
    "sosId": "OH0012700085",
    "name": "Charles Edgar",
    "age": "46",
    "shortAddress": "53 W 2nd St",
    "precinct": "Man6a",
    "mappableAddress": "53 W 2ND ST Mansfield OH",
    "longitude": -82.517736,
    "latitude": 40.7572176,
    "turf": "Turf4",
    "order": 9,
    "full_order": 9.001
  },
  {
    "sosId": "OH0021272225",
    "name": "Raven Hoefler",
    "age": "26",
    "shortAddress": "53 W 2nd St",
    "precinct": "Man6a",
    "mappableAddress": "53 W 2ND ST Mansfield OH",
    "longitude": -82.517736,
    "latitude": 40.7572176,
    "turf": "Turf4",
    "order": 9,
    "full_order": 9.002
  },
  {
    "sosId": "OH0024223439",
    "name": "Mark Stover",
    "age": "30",
    "shortAddress": "53 W 2nd St",
    "precinct": "Man6a",
    "mappableAddress": "53 W 2ND ST Mansfield OH",
    "longitude": -82.517736,
    "latitude": 40.7572176,
    "turf": "Turf4",
    "order": 9,
    "full_order": 9.003
  },
  {
    "sosId": "OH0015934739",
    "name": "Jessica Peterson",
    "age": "32",
    "shortAddress": "57 S Mulberry St",
    "precinct": "Man6a",
    "mappableAddress": "57 S MULBERRY ST Mansfield OH",
    "longitude": -82.5178394,
    "latitude": 40.757018,
    "turf": "Turf4",
    "order": 10,
    "full_order": 10
  },
  {
    "sosId": "OH0012698275",
    "name": "Anne Harriman",
    "age": "58",
    "shortAddress": "59 S Mulberry St",
    "precinct": "Man6a",
    "mappableAddress": "59 S MULBERRY ST Mansfield OH",
    "longitude": -82.5178797,
    "latitude": 40.7569564,
    "turf": "Turf4",
    "order": 11,
    "full_order": 11
  },
  {
    "sosId": "OH0012669009",
    "name": "Mary Specht",
    "age": "54",
    "shortAddress": "61 S Mulberry St",
    "precinct": "Man6a",
    "mappableAddress": "61 S MULBERRY ST Mansfield OH",
    "longitude": -82.5179344,
    "latitude": 40.7568955,
    "turf": "Turf4",
    "order": 12,
    "full_order": 12
  },
  {
    "sosId": "OH0018650937",
    "name": "Donna Mcsweeney",
    "age": "74",
    "shortAddress": "61 S Mulberry St Apt 2",
    "precinct": "Man6a",
    "mappableAddress": "61 S MULBERRY ST Mansfield OH",
    "longitude": -82.5179344,
    "latitude": 40.7568955,
    "turf": "Turf4",
    "order": 12,
    "full_order": 12.002
  },
  {
    "sosId": "OH0019420175",
    "name": "Chelsea Means",
    "age": "31",
    "shortAddress": "40 W 1st St",
    "precinct": "Man6a",
    "mappableAddress": "40 W 1st ST Mansfield OH",
    "longitude": -82.5173331,
    "latitude": 40.7565164,
    "turf": "Turf4",
    "order": 14,
    "full_order": 14
  },
  {
    "sosId": "OH0021449267",
    "name": "Scott Hout",
    "age": "52",
    "shortAddress": "59 S Walnut St Rear",
    "precinct": "Man6a",
    "mappableAddress": "59 S WALNUT ST Mansfield OH",
    "longitude": -82.516354,
    "latitude": 40.7568089,
    "turf": "Turf4",
    "order": 15,
    "full_order": 15.005
  },
  {
    "sosId": "OH0020226457",
    "name": "Raymond Downing",
    "age": "54",
    "shortAddress": "59 1/2 S Walnut St Rear 2",
    "precinct": "Man6a",
    "mappableAddress": "59 S WALNUT ST Mansfield OH",
    "longitude": -82.516354,
    "latitude": 40.7568089,
    "turf": "Turf4",
    "order": 15.5,
    "full_order": 15.5
  },
  {
    "sosId": "OH0024053464",
    "name": "Elizabeth Pritchett",
    "age": "53",
    "shortAddress": "59 1/2 S Walnut St Rear 2",
    "precinct": "Man6a",
    "mappableAddress": "59 S WALNUT ST Mansfield OH",
    "longitude": -82.516354,
    "latitude": 40.7568089,
    "turf": "Turf4",
    "order": 15.5,
    "full_order": 15.501
  },
  {
    "sosId": "OH0012688496",
    "name": "David Yates",
    "age": "37",
    "shortAddress": "59 1/2 S Walnut St Rear 3",
    "precinct": "Man6a",
    "mappableAddress": "59 S WALNUT ST Mansfield OH",
    "longitude": -82.516354,
    "latitude": 40.7568089,
    "turf": "Turf4",
    "order": 15.8,
    "full_order": 15.803
  },
  {
    "sosId": "OH0012654241",
    "name": "Matthew Weeks",
    "age": "38",
    "shortAddress": "60 S Main St Apt 4",
    "precinct": "Man6a",
    "mappableAddress": "60 S MAIN ST Mansfield OH",
    "longitude": -82.5159412,
    "latitude": 40.7568352,
    "turf": "Turf4",
    "order": 16,
    "full_order": 16
  },
  {
    "sosId": "OH0012732080",
    "name": "Jason Wynn",
    "age": "43",
    "shortAddress": "68 1/2 S Main St Apt 2",
    "precinct": "Man6a",
    "mappableAddress": "68 S MAIN ST Mansfield OH",
    "longitude": -82.516068,
    "latitude": 40.7566073,
    "turf": "Turf4",
    "order": 17,
    "full_order": 17
  },
  {
    "sosId": "OH0023233632",
    "name": "Russell Romero",
    "age": "51",
    "shortAddress": "118 S Main St",
    "precinct": "Man6a",
    "mappableAddress": "118 S MAIN ST Mansfield OH",
    "longitude": -82.5161949,
    "latitude": 40.7552771,
    "turf": "Turf4",
    "order": 18,
    "full_order": 18
  },
  {
    "sosId": "OH0021551812",
    "name": "Benjamin Rinehart",
    "age": "37",
    "shortAddress": "16 W Augustine Ave",
    "precinct": "Man6a",
    "mappableAddress": "16 W AUGUSTINE AVE Mansfield OH",
    "longitude": -82.5164486,
    "latitude": 40.7552936,
    "turf": "Turf4",
    "order": 19,
    "full_order": 19
  },
  {
    "sosId": "OH0015542843",
    "name": "Joni Retton",
    "age": "36",
    "shortAddress": "16 W Augustine Ave",
    "precinct": "Man6a",
    "mappableAddress": "16 W AUGUSTINE AVE Mansfield OH",
    "longitude": -82.5164486,
    "latitude": 40.7552936,
    "turf": "Turf4",
    "order": 19,
    "full_order": 19.001
  },
  {
    "sosId": "OH0022045515",
    "name": "Michael Fields",
    "age": "31",
    "shortAddress": "13 W Augustine Ave",
    "precinct": "Man6a",
    "mappableAddress": "13 W AUGUSTINE AVE Mansfield OH",
    "longitude": -82.5164063,
    "latitude": 40.7550547,
    "turf": "Turf4",
    "order": 20,
    "full_order": 20
  },
  {
    "sosId": "OH0023233835",
    "name": "Brett White",
    "age": "25",
    "shortAddress": "17 W Augustine Ave",
    "precinct": "Man6a",
    "mappableAddress": "17 W AUGUSTINE AVE Mansfield OH",
    "longitude": -82.516608,
    "latitude": 40.755065,
    "turf": "Turf4",
    "order": 22,
    "full_order": 22
  },
  {
    "sosId": "OH0023308854",
    "name": "Chris Smith",
    "age": "32",
    "shortAddress": "21 W Augustine Ave",
    "precinct": "Man6a",
    "mappableAddress": "21 W AUGUSTINE AVE Mansfield OH",
    "longitude": -82.5167657,
    "latitude": 40.7550977,
    "turf": "Turf4",
    "order": 23,
    "full_order": 23
  },
  {
    "sosId": "OH0012668285",
    "name": "Barbara Radabaugh",
    "age": "33",
    "shortAddress": "25 1/2 W Augustine Ave",
    "precinct": "Man6a",
    "mappableAddress": "25 W AUGUSTINE AVE Mansfield OH",
    "longitude": -82.5169137,
    "latitude": 40.7550877,
    "turf": "Turf4",
    "order": 24,
    "full_order": 24
  },
  {
    "sosId": "OH0012716496",
    "name": "Daniel Rose",
    "age": "35",
    "shortAddress": "34 W Augustine Ave",
    "precinct": "Man6a",
    "mappableAddress": "34 W AUGUSTINE AVE Mansfield OH",
    "longitude": -82.5171251,
    "latitude": 40.7552982,
    "turf": "Turf4",
    "order": 25,
    "full_order": 25
  },
  {
    "sosId": "OH0022972995",
    "name": "Marlin Warner",
    "age": "47",
    "shortAddress": "34 W Augustine Ave",
    "precinct": "Man6a",
    "mappableAddress": "34 W AUGUSTINE AVE Mansfield OH",
    "longitude": -82.5171251,
    "latitude": 40.7552982,
    "turf": "Turf4",
    "order": 25,
    "full_order": 25.001
  },
  {
    "sosId": "OH0012669143",
    "name": "Eddie Rose",
    "age": "57",
    "shortAddress": "39 W Augustine Ave",
    "precinct": "Man6a",
    "mappableAddress": "39 W AUGUSTINE AVE Mansfield OH",
    "longitude": -82.5173787,
    "latitude": 40.7551179,
    "turf": "Turf4",
    "order": 26,
    "full_order": 26
  },
  {
    "sosId": "OH0012669217",
    "name": "Paul Harriger",
    "age": "40",
    "shortAddress": "45 W Augustine Ave",
    "precinct": "Man6a",
    "mappableAddress": "45 W AUGUSTINE AVE Mansfield OH",
    "longitude": -82.517622,
    "latitude": 40.755026,
    "turf": "Turf4",
    "order": 27,
    "full_order": 27
  },
  {
    "sosId": "OH0019445583",
    "name": "Nancy Searles",
    "age": "57",
    "shortAddress": "45 W Augustine Ave",
    "precinct": "Man6a",
    "mappableAddress": "45 W AUGUSTINE AVE Mansfield OH",
    "longitude": -82.517622,
    "latitude": 40.755026,
    "turf": "Turf4",
    "order": 27,
    "full_order": 27.001
  },
  {
    "sosId": "OH0020054592",
    "name": "Crystal Rose",
    "age": "34",
    "shortAddress": "45 W Augustine Ave",
    "precinct": "Man6a",
    "mappableAddress": "45 W AUGUSTINE AVE Mansfield OH",
    "longitude": -82.517622,
    "latitude": 40.755026,
    "turf": "Turf4",
    "order": 27,
    "full_order": 27.002
  },
  {
    "sosId": "OH0012704424",
    "name": "Amy Stone Santillan",
    "age": "37",
    "shortAddress": "46 W Augustine Ave",
    "precinct": "Man6a",
    "mappableAddress": "46 W AUGUSTINE AVE Mansfield OH",
    "longitude": -82.5176324,
    "latitude": 40.7553312,
    "turf": "Turf4",
    "order": 27,
    "full_order": 27.004
  },
  {
    "sosId": "OH0015916053",
    "name": "David Santillan",
    "age": "41",
    "shortAddress": "46 W Augustine Ave",
    "precinct": "Man6a",
    "mappableAddress": "46 W AUGUSTINE AVE Mansfield OH",
    "longitude": -82.5176324,
    "latitude": 40.7553312,
    "turf": "Turf4",
    "order": 27,
    "full_order": 27.005
  },
  {
    "sosId": "OH0012668461",
    "name": "Milton Sullivan",
    "age": "87",
    "shortAddress": "31 W Williams Ave",
    "precinct": "Man6a",
    "mappableAddress": "31 W WILLIAMS AVE Mansfield OH",
    "longitude": -82.517073,
    "latitude": 40.754744,
    "turf": "Turf4",
    "order": 29,
    "full_order": 29
  },
  {
    "sosId": "OH0012676852",
    "name": "Jeffrey Fliger",
    "age": "53",
    "shortAddress": "21 W Williams Ave",
    "precinct": "Man6a",
    "mappableAddress": "21 W WILLIAMS AVE Mansfield OH",
    "longitude": -82.516775,
    "latitude": 40.754693,
    "turf": "Turf4",
    "order": 30,
    "full_order": 30
  },
  {
    "sosId": "OH0012695251",
    "name": "Brent Brasseur",
    "age": "52",
    "shortAddress": "21 W Williams Ave",
    "precinct": "Man6a",
    "mappableAddress": "21 W WILLIAMS AVE Mansfield OH",
    "longitude": -82.516775,
    "latitude": 40.754693,
    "turf": "Turf4",
    "order": 30,
    "full_order": 30.001
  },
  {
    "sosId": "OH0022240467",
    "name": "Raymond Bond",
    "age": "29",
    "shortAddress": "20 W Williams Ave",
    "precinct": "Man6a",
    "mappableAddress": "20 W WILLIAMS AVE Mansfield OH",
    "longitude": -82.5168291,
    "latitude": 40.7549247,
    "turf": "Turf4",
    "order": 31,
    "full_order": 31
  },
  {
    "sosId": "OH0012663305",
    "name": "William Caudell",
    "age": "69",
    "shortAddress": "18 W Williams Ave",
    "precinct": "Man6a",
    "mappableAddress": "18 W WILLIAMS AVE Mansfield OH",
    "longitude": -82.51666,
    "latitude": 40.7549137,
    "turf": "Turf4",
    "order": 32,
    "full_order": 32
  },
  {
    "sosId": "OH0012669098",
    "name": "Carla Brasseur",
    "age": "43",
    "shortAddress": "18 W Williams Ave",
    "precinct": "Man6a",
    "mappableAddress": "18 W WILLIAMS AVE Mansfield OH",
    "longitude": -82.51666,
    "latitude": 40.7549137,
    "turf": "Turf4",
    "order": 32,
    "full_order": 32.001
  },
  {
    "sosId": "OH0023547666",
    "name": "Mason Caudell",
    "age": "20",
    "shortAddress": "18 W Williams Ave",
    "precinct": "Man6a",
    "mappableAddress": "18 W WILLIAMS AVE Mansfield OH",
    "longitude": -82.51666,
    "latitude": 40.7549137,
    "turf": "Turf4",
    "order": 32,
    "full_order": 32.002
  },
  {
    "sosId": "OH0024294965",
    "name": "Jesse Caudell",
    "age": "18",
    "shortAddress": "18 W Williams Ave",
    "precinct": "Man6a",
    "mappableAddress": "18 W WILLIAMS AVE Mansfield OH",
    "longitude": -82.51666,
    "latitude": 40.7549137,
    "turf": "Turf4",
    "order": 32,
    "full_order": 32.003
  },
  {
    "sosId": "OH0012668826",
    "name": "David Brasseur",
    "age": "51",
    "shortAddress": "13 W Williams Ave",
    "precinct": "Man6a",
    "mappableAddress": "13 W WILLIAMS AVE Mansfield OH",
    "longitude": -82.5165615,
    "latitude": 40.7546946,
    "turf": "Turf4",
    "order": 33,
    "full_order": 33
  },
  {
    "sosId": "OH0022421225",
    "name": "Sierra Olar",
    "age": "22",
    "shortAddress": "11 W Williams Ave",
    "precinct": "Man6a",
    "mappableAddress": "11 W WILLIAMS AVE Mansfield OH",
    "longitude": -82.516512,
    "latitude": 40.7546876,
    "turf": "Turf4",
    "order": 34,
    "full_order": 34
  },
  {
    "sosId": "OH0019078938",
    "name": "Jeremy Stafford",
    "age": "39",
    "shortAddress": "132 S Main St",
    "precinct": "Man6a",
    "mappableAddress": "132 S MAIN ST Mansfield OH",
    "longitude": -82.5161949,
    "latitude": 40.7549229,
    "turf": "Turf4",
    "order": 35,
    "full_order": 35
  },
  {
    "sosId": "OH0023056728",
    "name": "Cole Easterling",
    "age": "25",
    "shortAddress": "146 S Main St",
    "precinct": "Man6a",
    "mappableAddress": "146 S MAIN ST Mansfield OH",
    "longitude": -82.5162372,
    "latitude": 40.754532,
    "turf": "Turf4",
    "order": 36,
    "full_order": 36
  },
  {
    "sosId": "OH0023449639",
    "name": "Kevin Pritt",
    "age": "34",
    "shortAddress": "146 S Main St",
    "precinct": "Man6a",
    "mappableAddress": "146 S MAIN ST Mansfield OH",
    "longitude": -82.5162372,
    "latitude": 40.754532,
    "turf": "Turf4",
    "order": 36,
    "full_order": 36.001
  },
  {
    "sosId": "OH0019898361",
    "name": "Jennifer Millhoff",
    "age": "28",
    "shortAddress": "146 S Main St Apt 1",
    "precinct": "Man6a",
    "mappableAddress": "146 S MAIN ST Mansfield OH",
    "longitude": -82.5162372,
    "latitude": 40.754532,
    "turf": "Turf4",
    "order": 36,
    "full_order": 36.003
  },
  {
    "sosId": "OH0021675905",
    "name": "Samantha Bradley",
    "age": "25",
    "shortAddress": "146 S Main St Apt 3",
    "precinct": "Man6a",
    "mappableAddress": "146 S MAIN ST Mansfield OH",
    "longitude": -82.5162372,
    "latitude": 40.754532,
    "turf": "Turf4",
    "order": 36,
    "full_order": 36.005
  },
  {
    "sosId": "OH0022985032",
    "name": "Keaireeyana Mosley",
    "age": "21",
    "shortAddress": "146 S Main St Apt 4",
    "precinct": "Man6a",
    "mappableAddress": "146 S MAIN ST Mansfield OH",
    "longitude": -82.5162372,
    "latitude": 40.754532,
    "turf": "Turf4",
    "order": 36,
    "full_order": 36.007
  },
  {
    "sosId": "OH0012664610",
    "name": "Melissa Pinkston",
    "age": "47",
    "shortAddress": "20 W Arch St",
    "precinct": "Man6a",
    "mappableAddress": "20 W ARCH ST Mansfield OH",
    "longitude": -82.5167022,
    "latitude": 40.7545228,
    "turf": "Turf4",
    "order": 37,
    "full_order": 37
  },
  {
    "sosId": "OH0020529880",
    "name": "Jazmine James",
    "age": "27",
    "shortAddress": "26 W Arch St",
    "precinct": "Man6a",
    "mappableAddress": "26 W ARCH ST Mansfield OH",
    "longitude": -82.5169982,
    "latitude": 40.754542,
    "turf": "Turf4",
    "order": 38,
    "full_order": 38.002
  },
  {
    "sosId": "OH0022405092",
    "name": "Javelle James",
    "age": "22",
    "shortAddress": "26 W Arch St",
    "precinct": "Man6a",
    "mappableAddress": "26 W ARCH ST Mansfield OH",
    "longitude": -82.5169982,
    "latitude": 40.754542,
    "turf": "Turf4",
    "order": 38,
    "full_order": 38.003
  },
  {
    "sosId": "OH0022430381",
    "name": "Bertina Barke",
    "age": "26",
    "shortAddress": "26 W Arch St",
    "precinct": "Man6a",
    "mappableAddress": "26 W ARCH ST Mansfield OH",
    "longitude": -82.5169982,
    "latitude": 40.754542,
    "turf": "Turf4",
    "order": 38,
    "full_order": 38.004
  },
  {
    "sosId": "OH0023266155",
    "name": "Dewone Tyus",
    "age": "40",
    "shortAddress": "26 W Arch St",
    "precinct": "Man6a",
    "mappableAddress": "26 W ARCH ST Mansfield OH",
    "longitude": -82.5169982,
    "latitude": 40.754542,
    "turf": "Turf4",
    "order": 38,
    "full_order": 38.005
  },
  {
    "sosId": "OH0023258305",
    "name": "Virginia Eberhardt",
    "age": "32",
    "shortAddress": "26 1/2 W Arch St",
    "precinct": "Man6a",
    "mappableAddress": "26 W ARCH ST Mansfield OH",
    "longitude": -82.5169982,
    "latitude": 40.754542,
    "turf": "Turf4",
    "order": 38.5,
    "full_order": 38.5
  },
  {
    "sosId": "OH0018942922",
    "name": "Antoine Perdury",
    "age": "31",
    "shortAddress": "36 W Arch St",
    "precinct": "Man6a",
    "mappableAddress": "36 W ARCH ST Mansfield OH",
    "longitude": -82.5173332,
    "latitude": 40.7545757,
    "turf": "Turf4",
    "order": 40,
    "full_order": 40
  },
  {
    "sosId": "OH0012668356",
    "name": "Vincent Kapala",
    "age": "218",
    "shortAddress": "40 W Arch St",
    "precinct": "Man6a",
    "mappableAddress": "40 W ARCH ST Mansfield OH",
    "longitude": -82.5175479,
    "latitude": 40.7546171,
    "turf": "Turf4",
    "order": 41,
    "full_order": 41
  },
  {
    "sosId": "OH0021108216",
    "name": "Lawnta Pinkston",
    "age": "26",
    "shortAddress": "40 W Arch St",
    "precinct": "Man6a",
    "mappableAddress": "40 W ARCH ST Mansfield OH",
    "longitude": -82.5175479,
    "latitude": 40.7546171,
    "turf": "Turf4",
    "order": 41,
    "full_order": 41.001
  },
  {
    "sosId": "OH0021813556",
    "name": "Roger Migliaccio",
    "age": "49",
    "shortAddress": "40 W Arch St",
    "precinct": "Man6a",
    "mappableAddress": "40 W ARCH ST Mansfield OH",
    "longitude": -82.5175479,
    "latitude": 40.7546171,
    "turf": "Turf4",
    "order": 41,
    "full_order": 41.002
  },
  {
    "sosId": "OH0012695381",
    "name": "Brittany Browning",
    "age": "34",
    "shortAddress": "41 W Arch St",
    "precinct": "Man6a",
    "mappableAddress": "41 W ARCH ST Mansfield OH",
    "longitude": -82.5175472,
    "latitude": 40.7543297,
    "turf": "Turf4",
    "order": 42,
    "full_order": 42
  },
  {
    "sosId": "OH0020146122",
    "name": "Wahnita Rife",
    "age": "27",
    "shortAddress": "39 W Arch St",
    "precinct": "Man6a",
    "mappableAddress": "39 W ARCH ST Mansfield OH",
    "longitude": -82.517421,
    "latitude": 40.7543333,
    "turf": "Turf4",
    "order": 43,
    "full_order": 43
  },
  {
    "sosId": "OH0012664736",
    "name": "Melissa Thomas",
    "age": "41",
    "shortAddress": "37 W Arch St",
    "precinct": "Man6a",
    "mappableAddress": "37 W ARCH ST Mansfield OH",
    "longitude": -82.5172509,
    "latitude": 40.7542629,
    "turf": "Turf4",
    "order": 44,
    "full_order": 44
  },
  {
    "sosId": "OH0012665667",
    "name": "Temika Windham",
    "age": "38",
    "shortAddress": "35 W Arch St",
    "precinct": "Man6a",
    "mappableAddress": "35 W ARCH ST Mansfield OH",
    "longitude": -82.5171147,
    "latitude": 40.7543116,
    "turf": "Turf4",
    "order": 45,
    "full_order": 45
  },
  {
    "sosId": "OH0022691144",
    "name": "Ja Keel Windham",
    "age": "21",
    "shortAddress": "35 W Arch St",
    "precinct": "Man6a",
    "mappableAddress": "35 W ARCH ST Mansfield OH",
    "longitude": -82.5171147,
    "latitude": 40.7543116,
    "turf": "Turf4",
    "order": 45,
    "full_order": 45.001
  },
  {
    "sosId": "OH0012668802",
    "name": "Juan Brownfield",
    "age": "40",
    "shortAddress": "15 W Arch St",
    "precinct": "Man6a",
    "mappableAddress": "15 W ARCH ST Mansfield OH",
    "longitude": -82.5165079,
    "latitude": 40.7543425,
    "turf": "Turf4",
    "order": 46,
    "full_order": 46
  },
  {
    "sosId": "OH0012664600",
    "name": "Wilonda Carter",
    "age": "50",
    "shortAddress": "152 S Main St",
    "precinct": "Man6a",
    "mappableAddress": "152 S MAIN ST Mansfield OH",
    "longitude": -82.5161949,
    "latitude": 40.754293,
    "turf": "Turf4",
    "order": 47,
    "full_order": 47
  },
  {
    "sosId": "OH0021361929",
    "name": "Briatta Webb",
    "age": "25",
    "shortAddress": "152 S Main St",
    "precinct": "Man6a",
    "mappableAddress": "152 S MAIN ST Mansfield OH",
    "longitude": -82.5161949,
    "latitude": 40.754293,
    "turf": "Turf4",
    "order": 47,
    "full_order": 47.001
  },
  {
    "sosId": "OH0023486458",
    "name": "Molea Thompson",
    "age": "22",
    "shortAddress": "152 S Main St",
    "precinct": "Man6a",
    "mappableAddress": "152 S MAIN ST Mansfield OH",
    "longitude": -82.5161949,
    "latitude": 40.754293,
    "turf": "Turf4",
    "order": 47,
    "full_order": 47.002
  },
  {
    "sosId": "OH0021759062",
    "name": "Amber Henke",
    "age": "39",
    "shortAddress": "154 S Main St",
    "precinct": "Man6a",
    "mappableAddress": "154 S MAIN ST Mansfield OH",
    "longitude": -82.5161949,
    "latitude": 40.7542143,
    "turf": "Turf4",
    "order": 47,
    "full_order": 47.004
  },
  {
    "sosId": "OH0012655991",
    "name": "Richard Gerber",
    "age": "67",
    "shortAddress": "162 S Main St",
    "precinct": "Man6a",
    "mappableAddress": "162 S MAIN ST Mansfield OH",
    "longitude": -82.5162372,
    "latitude": 40.7540596,
    "turf": "Turf4",
    "order": 48,
    "full_order": 48
  }
]